city_area,state,ufo_shape,encounter_length,date_documented,latitude,longitude,year
reno,nv,cylinder,2.0,12/12/2009,39.5297222,-119.8127778,2009
kingsport,tn,cylinder,10.0,8/21/2011,36.5483333,-82.5619444,2011
orland park,il,circle,7200.0,10/11/2005,41.6302778,-87.8538889,2005
shenandoah county (over the town of),va,sphere,25.0,7/14/1999,38.485,-78.6252778,1999
fairfield,ia,sphere,1800.0,10/2/1999,41.0086111,-91.9625,1997
boise,id,formation,35.0,9/30/2013,43.6136111,-116.2025,2013
dunedin,fl,sphere,5.0,2/8/2011,28.0194444,-82.7719444,2011
okemos,mi,other,10.0,11/20/2002,42.7222222,-84.4275,2002
fayetteville,nc,disk,600.0,8/21/2011,35.0525,-78.8786111,2011
kent,wa,teardrop,90.0,5/15/2006,47.3811111,-122.2336111,1980
mayville,ny,teardrop,60.0,3/4/2008,42.2538889,-79.5047222,2007
huntington beach,ca,cross,180.0,5/15/2006,33.6602778,-117.9983333,2006
arlington,mo,oval,180.0,8/12/2008,37.9202778,-91.9708333,2008
phoenix,az,oval,60.0,8/11/2004,33.4483333,-112.0733333,2004
olympia,wa,light,1800.0,4/1/2001,47.0380556,-122.8994444,2001
ocala,fl,circle,600.0,4/13/2010,29.1869444,-82.1402778,2010
tamarac,fl,light,60.0,4/13/2010,26.2125,-80.25,2010
cape canaveral,fl,light,60.0,10/8/2007,28.4055556,-80.605,2000
orinda,ca,fireball,2.0,1/11/2005,37.8772222,-122.1786111,2005
pell city,al,oval,300.0,5/15/2013,33.5861111,-86.2861111,2013
clovis,ca,light,60.0,5/11/2005,36.8252778,-119.7019444,2005
escondido,ca,rectangle,300.0,4/18/2014,33.1191667,-117.0855556,2014
sacramento,ca,changing,300.0,12/23/2013,38.5816667,-121.4933333,2013
gorham,me,disk,25.0,2/3/2012,43.6794444,-70.4447222,2012
pinckney,mi,light,300.0,7/6/2011,42.4566667,-83.9463889,2011
worcester,ma,other,2.0,1/10/2009,42.2625,-71.8027778,2008
st. louis,mo,circle,2.0,6/3/2011,38.6272222,-90.1977778,2011
tinley park,il,formation,1800.0,11/9/2004,41.5733333,-87.7844444,2004
lewisburg,wv,triangle,900.0,8/5/2012,37.8016667,-80.4458333,2012
lyndhurst,oh,cigar,10.0,2/12/2004,41.52,-81.4888889,2004
naugatuck,ct,disk,3.0,7/3/2013,41.4858333,-73.0511111,2013
hampstead,nc,fireball,18.0,1/28/1999,34.3675,-77.7108333,1998
virginia beach,va,circle,600.0,3/4/2008,36.8527778,-75.9783333,2008
teasdale,ut,triangle,600.0,8/5/2001,38.2861111,-111.4766667,2001
antioch,ca,formation,1200.0,2/22/2002,38.005,-121.8047222,2002
tomball,tx,triangle,120.0,1/11/2002,30.0969444,-95.6158333,2002
south bend,in,triangle,20.0,2/14/2010,41.6833333,-86.25,2010
big rapids,mi,light,15.0,10/31/2008,43.6980556,-85.4836111,2008
columbus,oh,formation,120.0,11/19/2012,39.9611111,-82.9988889,2012
bristol,tn,disk,900.0,8/4/2003,36.595,-82.1888889,2003
bergenfield,nj,cigar,1200.0,3/18/2014,40.9275,-73.9977778,1976
atlanta,ga,light,900.0,6/14/2012,33.7488889,-84.3880556,2012
neenah,wi,triangle,600.0,1/12/2012,44.1858333,-88.4625,2011
lancaster,ca,circle,60.0,1/10/2009,34.6980556,-118.1358333,2008
tacoma,wa,light,10.0,4/26/1999,47.2530556,-122.4430556,1999
longwood,fl,triangle,60.0,5/15/2006,28.7027778,-81.3386111,2006
fort smith,ar,sphere,60.0,8/19/2012,35.3858333,-94.3983333,2012
everett,wa,circle,900.0,11/21/2010,47.9791667,-122.2008333,2010
salem,nh,sphere,2.0,7/16/2006,42.7883333,-71.2013889,1985
raquette lake  (golden beach campground),ny,light,3600.0,9/17/2003,43.8130556,-74.6577778,1999
silverdale (bangor submarine base),wa,light,5.0,2/16/1999,47.6447222,-122.6936111,1999
sacramento,ca,changing,3600.0,5/12/2009,38.5816667,-121.4933333,2009
nashville,tn,light,50.0,6/2/2013,36.1658333,-86.7844444,2013
columbus,oh,diamond,60.0,4/28/2001,39.9611111,-82.9988889,2001
palm bay,fl,oval,5.0,8/5/2009,28.0341667,-80.5888889,2009
agoura hills,ca,light,60.0,12/3/2004,34.1363889,-118.7736111,2004
placentia,ca,rectangle,60.0,1/24/2014,33.8722222,-117.8694444,2014
wallace,nc,chevron,10.0,2/4/2013,34.7355556,-77.9955556,2008
mckinney,tx,fireball,2.0,10/30/2006,33.1975,-96.615,2006
sacramento,ca,circle,2.0,7/14/2013,38.5816667,-121.4933333,2013
barnegat light,nj,other,7200.0,8/24/2004,39.7575,-74.1066667,2004
campbell,ca,light,300.0,8/5/2012,37.2872222,-121.9488889,2012
oak lawn,il,circle,300.0,10/10/2011,41.7108333,-87.7580556,2011
richmond,mn,light,420.0,8/30/2013,45.4541667,-94.5180556,2013
paradise valley,az,circle,300.0,8/5/2009,33.5311111,-111.9419444,2009
miami,fl,disk,18000.0,4/8/2002,25.7738889,-80.1938889,2001
dateland,az,circle,600.0,8/24/2010,32.7963889,-113.5402778,1997
new york city,ny,sphere,1500.0,9/13/2002,40.7141667,-74.0063889,2002
madisonville,ky,light,5400.0,5/9/2003,37.3280556,-87.4988889,2003
auburn,wa,oval,60.0,2/14/2006,47.3075,-122.2272222,1952
americus,ga,light,1800.0,10/30/2006,32.0722222,-84.2327778,2005
ocala,fl,triangle,1800.0,2/16/2000,29.1869444,-82.1402778,1999
lake wales,fl,triangle,120.0,12/12/2009,27.9011111,-81.5861111,2009
burlingame,ks,triangle,7200.0,8/30/2010,38.7538889,-95.8347222,2010
waseca,mn,other,3600.0,6/6/2000,44.0777778,-93.5072222,1997
oregon city,or,sphere,120.0,12/12/2009,45.3575,-122.6055556,2009
phoenix,az,sphere,30.0,4/13/2010,33.4483333,-112.0733333,1993
winfield,wv,fireball,300.0,12/2/2000,38.5330556,-81.8936111,2000
tempe,az,fireball,300.0,2/10/2012,33.4147222,-111.9086111,2012
orlando,fl,sphere,60.0,3/4/2008,28.5380556,-81.3794444,2006
columbus junction,ia,light,180.0,7/5/2005,41.28,-91.3605556,2004
pensacola,fl,disk,60.0,6/12/2002,30.4211111,-87.2169444,2002
billings,mt,sphere,60.0,12/12/2011,45.7833333,-108.5,2011
lynn,ma,circle,30.0,1/10/2014,42.4666667,-70.95,2014
spring grove,mn,circle,7.0,8/5/2012,43.5611111,-91.6358333,2012
fort collins,co,light,120.0,8/5/2009,40.5852778,-105.0838889,2009
grand blanc,mi,light,120.0,3/19/2009,42.9275,-83.63,2009
san jose,ca,egg,300.0,10/31/2008,37.3394444,-121.8938889,2008
newport,mi,fireball,2700.0,9/24/2012,42.0022222,-83.3086111,2012
bartlett,tn,chevron,120.0,3/4/2008,35.2044444,-89.8738889,2007
santa rosa,ca,circle,6.0,3/11/2003,38.4405556,-122.7133333,2002
amityville,ny,formation,1200.0,7/22/2013,40.6788889,-73.4175,2013
ormond beach,fl,circle,7200.0,3/18/2014,29.2855556,-81.0561111,2014
miami,fl,disk,600.0,9/24/2012,25.7738889,-80.1938889,1967
muncie,in,rectangle,120.0,3/8/2007,40.1933333,-85.3863889,2007
canyon country,ca,circle,600.0,7/16/2006,34.4233333,-118.4711111,2006
folsom (over/cameron park),ca,triangle,300.0,12/23/2002,38.6780556,-121.175,2002
camarillo,ca,other,300.0,8/7/2011,34.2163889,-119.0366667,2008
plains,pa,light,240.0,5/24/2005,41.2752778,-75.8505556,2005
bartlett,il,triangle,600.0,7/5/2013,41.995,-88.1855556,2013
little rock,ar,triangle,60.0,5/3/2000,34.7463889,-92.2894444,2000
new haven,ct,sphere,1200.0,8/19/2000,41.3080556,-72.9286111,1983
paso robles,ca,flash,7.0,6/6/2000,35.6266667,-120.69,2000
boston (northwest of),ma,light,11.0,12/12/2011,42.3583333,-71.0602778,2011
middleton,wi,other,600.0,10/8/2007,43.0972222,-89.5041667,2007
neenah,wi,light,600.0,1/17/2004,44.1858333,-88.4625,1990
gaithersburg,md,light,180.0,10/11/2005,39.1433333,-77.2016667,2005
raleigh,nc,light,1.0,5/29/2012,35.7719444,-78.6388889,2012
rifle,co,fireball,30.0,4/27/2007,39.5347222,-107.7825,2007
holt (near),fl,disk,300.0,4/3/2011,30.7155556,-86.7458333,2011
groveport,oh,circle,300.0,7/14/2013,39.8783333,-82.8838889,2013
acworth,ga,light,7200.0,8/1/2003,34.0658333,-84.6769444,1999
cincinnati,oh,disk,600.0,5/13/2003,39.1619444,-84.4569444,1966
spokane,wa,disk,300.0,1/28/1999,47.6588889,-117.425,1971
wyandotte,mi,fireball,30.0,8/7/2007,42.2141667,-83.15,2007
birmingham,al,fireball,60.0,7/14/2013,33.5205556,-86.8025,2013
normandy beach,nj,triangle,4.0,7/13/2005,40.0025,-74.0608333,1994
bristol,va,light,900.0,7/14/2013,36.5963889,-82.1886111,2013
columbus,oh,light,15.0,8/5/2001,39.9611111,-82.9988889,2000
north tonawanda,ny,light,2.0,1/10/2009,43.0386111,-78.8644444,2008
faribault,mn,egg,300.0,10/10/2011,44.295,-93.2686111,2011
ewa beach,hi,fireball,3.0,10/8/2007,21.3155556,-158.0072222,2007
madison,al,triangle,60.0,1/24/2014,34.6991667,-86.7483333,2014
mojave (vicinity),ca,light,90.0,12/14/2004,35.0525,-118.1730556,1972
leander,tx,cylinder,1200.0,7/23/2000,30.5786111,-97.8527778,1998
woodstock,ga,triangle,10.0,8/5/2009,34.1013889,-84.5194444,2005
paragould,ar,flash,240.0,4/16/2005,36.0583333,-90.4972222,2005
myrtle beach,sc,circle,12.0,1/5/2011,33.6888889,-78.8869444,2010
franklin furnace,oh,light,5400.0,11/28/2007,38.645,-82.8488889,2007
st. louis park,mn,fireball,15.0,12/12/2011,44.9483333,-93.3477778,2011
houston,tx,fireball,3.0,10/30/2012,29.7630556,-95.3630556,2012
andover,ct,circle,7200.0,5/13/2012,41.7372222,-72.3708333,2012
poway,ca,triangle,1320.0,2/16/1999,32.9627778,-117.035,1997
springfield,mo,oval,10.0,8/5/2000,37.2152778,-93.2980556,2000
hesperia,ca,light,300.0,1/22/2004,34.4263889,-117.3,2004
ventura,ca,chevron,6.0,12/12/2009,34.2783333,-119.2922222,2009
snohomish,wa,oval,1200.0,4/26/2000,47.9130556,-122.0969444,1998
spring valley,ca,circle,120.0,1/10/2009,32.7447222,-116.9980556,2008
st. johnsbury,vt,circle,5.0,12/2/2013,44.4191667,-72.0155556,2013
new cumberland,pa,light,60.0,2/14/2006,40.2322222,-76.885,2006
charleston,sc,circle,3600.0,11/4/2002,32.7763889,-79.9311111,2001
boise,id,other,20.0,7/19/2010,43.6136111,-116.2025,2010
columbus,oh,other,600.0,12/12/2011,39.9611111,-82.9988889,2011
phoenix,az,light,900.0,6/12/2008,33.4483333,-112.0733333,2008
yakima,wa,light,180.0,5/12/2011,46.6022222,-120.5047222,2011
claremore,ok,light,7200.0,12/2/2000,36.3125,-95.6158333,2000
chester,ct,circle,600.0,9/24/2012,41.4030556,-72.4513889,2012
san diego,ca,cigar,3600.0,11/21/2010,32.7152778,-117.1563889,2009
la mesa,ca,flash,1800.0,8/30/2013,32.7677778,-117.0222222,2013
moncks corner,sc,sphere,20.0,2/21/2014,33.1958333,-80.0133333,2014
tampa,fl,circle,1800.0,12/2/2013,27.9472222,-82.4586111,2013
long beach,ca,egg,120.0,9/2/2005,33.7669444,-118.1883333,1997
monmouth,or,disk,180.0,12/12/2009,44.8486111,-123.2327778,2009
pensacola,fl,changing,120.0,8/5/2009,30.4211111,-87.2169444,2009
palm springs,ca,oval,180.0,12/16/1999,33.8302778,-116.5444444,1999
windsor,sc,disk,1800.0,1/31/2004,33.4816667,-81.5138889,1969
macon,mo,triangle,120.0,12/7/2006,39.7422222,-92.4725,2006
baltimore,md,changing,14400.0,10/31/2008,39.2902778,-76.6125,2008
savage,md,oval,15.0,1/12/2012,39.1377778,-76.8241667,2012
saint paul,mn,light,35.0,1/16/2014,44.9444444,-93.0930556,2013
phoenix,az,oval,900.0,6/23/2010,33.4483333,-112.0733333,2010
red oak,tx,other,30.0,12/12/2011,32.5175,-96.8041667,2011
farmington,ny,rectangle,300.0,10/31/2008,42.9836111,-77.3261111,1979
north port,fl,circle,300.0,5/13/2012,27.0438889,-82.2361111,2012
hancock,wi,fireball,180.0,12/20/2012,44.1336111,-89.5230556,2012
flint,mi,triangle,5.0,2/14/2006,43.0125,-83.6875,2005
middleton,wi,sphere,4.0,5/13/2012,43.0972222,-89.5041667,2012
greer,sc,fireball,180.0,1/31/2011,34.9386111,-82.2272222,2011
warrensburg,mo,other,5.0,10/31/2008,38.7627778,-93.7358333,2008
alton,il,triangle,60.0,2/16/2000,38.8905556,-90.1841667,2000
batavia,ny,circle,1800.0,10/30/2012,42.9980556,-78.1877778,2012
cheyenne,wy,other,300.0,8/30/2010,41.14,-104.8197222,2010
fort lauderdale,fl,disk,3.0,3/18/2014,26.1219444,-80.1436111,2014
ellicott city,md,other,20.0,8/12/2008,39.2672222,-76.7986111,2008
saint augustine,fl,fireball,480.0,8/30/2013,29.8944444,-81.3147222,2013
dunn,nc,teardrop,45.0,7/1/2002,35.3061111,-78.6091667,2002
gettysburg,pa,rectangle,30.0,8/12/2008,39.8308333,-77.2313889,2008
las vegas,nv,formation,180.0,4/1/2001,36.175,-115.1363889,2001
san pablo,ca,circle,20.0,11/21/2010,37.9622222,-122.3444444,2010
lake oswego,or,light,5.0,7/16/2006,45.4208333,-122.6694444,2006
goleta,ca,triangle,45.0,1/21/2008,34.4358333,-119.8266667,2008
cedar park,tx,fireball,35.0,2/3/2012,30.505,-97.82,2012
hollister,ca,light,120.0,1/28/1999,36.8525,-121.4005556,1997
eugene,or,cigar,10.0,3/11/2003,44.0522222,-123.0855556,2003
college place,wa,circle,180.0,5/15/2006,46.0494444,-118.3872222,2006
wilmington,ca,oval,40.0,5/12/2010,33.78,-118.2616667,2010
phoenix,az,changing,30.0,8/24/2004,33.4483333,-112.0733333,2004
murphysboro,il,rectangle,5.0,4/27/2007,37.7644444,-89.335,2007
sinking spring,pa,light,2700.0,4/25/2002,40.3272222,-76.0113889,2002
pontiac,mi,light,60.0,9/4/2003,42.6388889,-83.2911111,1998
tupelo,ms,sphere,10.0,6/12/2002,34.2575,-88.7033333,2002
san antonio,tx,light,30.0,11/20/2001,29.4238889,-98.4933333,2001
clarksville,ar,flash,1.0,10/14/2013,35.4713889,-93.4663889,2013
wheatfield,in,flash,6.0,10/27/2004,41.1930556,-87.0555556,2004
pleasantville,ny,cigar,5.0,11/20/2001,41.1327778,-73.7930556,2001
rochester,ny,circle,1800.0,7/6/2011,43.1547222,-77.6158333,2011
fallon,nv,sphere,1800.0,12/20/2012,39.4736111,-118.7763889,2006
las vegas,nv,disk,14400.0,10/31/2008,36.175,-115.1363889,2008
raleigh,nc,changing,10.0,2/1/2007,35.7719444,-78.6388889,2006
fries,va,cylinder,1800.0,10/31/2008,36.7161111,-80.9788889,1964
milwaukee,wi,triangle,1800.0,2/23/2011,43.0388889,-87.9063889,2011
buena park,ca,other,15.0,10/31/2003,33.8675,-117.9972222,2003
mishawaka,in,light,90.0,7/6/2011,41.6619444,-86.1586111,2011
moundsville,wv,other,300.0,10/11/2005,39.9202778,-80.7433333,2005
king of prussia,pa,sphere,15.0,2/14/2006,40.0891667,-75.3963889,2006
acton,in,circle,900.0,7/4/2012,39.6555556,-85.9669444,2012
oakdale,ca,oval,600.0,4/28/2001,37.7666667,-120.8461111,2001
new milford,ct,circle,90.0,12/20/2012,41.5769444,-73.4088889,2012
wenatchee,wa,light,300.0,2/4/2013,47.4236111,-120.3091667,2012
new york city (manhattan),ny,oval,300.0,2/14/2008,40.7141667,-74.0063889,1996
aiea,hi,circle,120.0,1/19/2005,21.3822222,-157.9336111,2004
kingman,az,fireball,120.0,11/19/1998,35.1894444,-114.0522222,1998
hayward,ca,changing,7.0,12/2/2000,37.6688889,-122.0797222,2000
memphis,tn,oval,300.0,11/28/2007,35.1494444,-90.0488889,1996
mount kisco,ny,light,120.0,12/20/2012,41.2041667,-73.7275,2012
summerville,sc,light,900.0,1/10/2009,33.0183333,-80.1758333,2008
great falls,mt,light,3600.0,10/11/2005,47.5002778,-111.3,1990
mineral point,mo,light,60.0,10/31/2003,37.9447222,-90.7241667,2001
cedar rapids,ia,oval,300.0,3/19/2002,42.0083333,-91.6438889,2002
narragansett,ri,circle,7200.0,9/24/2012,41.45,-71.45,2012
jacksonville,nc,circle,180.0,6/14/2012,34.7538889,-77.4305556,2012
wyandotte,mi,fireball,300.0,10/10/2011,42.2141667,-83.15,2011
new york city (bronx),ny,oval,300.0,9/9/2004,40.7141667,-74.0063889,2004
crawfordsville,in,light,300.0,7/4/2012,40.0411111,-86.8744444,2012
walworth county (eastern part),wi,oval,60.0,11/20/2002,42.5311111,-88.5994444,1999
des moines,ia,fireball,600.0,11/19/2012,41.6005556,-93.6088889,2012
fairfield,ca,other,10.0,12/16/2005,38.2494444,-122.0388889,2005
tracy city,tn,fireball,3.0,12/3/2004,35.2602778,-85.7361111,2004
fairfax,ca,sphere,1200.0,2/4/2013,37.9872222,-122.5877778,2013
parkersburg,wv,circle,60.0,6/12/2008,39.2666667,-81.5616667,2008
dallas,tx,light,300.0,6/2/1998,32.7833333,-96.8,1997
ewa beach,hi,triangle,7200.0,11/28/2007,21.3155556,-158.0072222,2000
carson,wa,sphere,120.0,8/19/2012,45.7255556,-121.8180556,2012
hamilton,oh,light,45.0,12/12/2009,39.3994444,-84.5613889,2009
glenville,wv,sphere,240.0,6/12/2008,38.9341667,-80.8377778,2008
encinitas,ca,light,900.0,7/5/2005,33.0369444,-117.2911111,2005
arlington,wa,light,120.0,9/26/1998,48.1988889,-122.1238889,1997
dallas,or,other,780.0,1/17/2004,44.9194444,-123.3158333,2003
salem,or,disk,1200.0,12/12/2009,44.9430556,-123.0338889,2007
el cajon,ca,light,960.0,8/5/2009,32.7947222,-116.9616667,2009
perry,ia,cylinder,1200.0,6/23/2010,41.8386111,-94.1069444,2010
grayslake,il,fireball,300.0,9/9/2013,42.3444444,-88.0416667,2013
freehold,nj,circle,37800.0,11/20/2002,40.26,-74.2741667,2000
sutton,ak,changing,420.0,11/30/1999,61.7113889,-148.8941667,1990
rio linda,ca,cylinder,2.0,11/21/2010,38.6911111,-121.4475,2010
harrisburg,pa,other,600.0,3/4/2008,40.2736111,-76.8847222,2007
bellows falls,vt,light,5.0,4/16/2005,43.1333333,-72.4444444,2005
coatesville,pa,circle,120.0,5/15/2013,39.9830556,-75.8241667,2013
wapello,ia,circle,600.0,4/16/2005,41.1813889,-91.1852778,1980
raynham,ma,sphere,120.0,5/13/2012,41.9486111,-71.0736111,2012
salisbury,nc,light,10.0,2/27/2014,35.6708333,-80.4744444,1997
owego,ny,disk,120.0,10/14/2013,42.1033333,-76.2625,2013
gorham,nh,light,10.0,4/8/2002,44.3877778,-71.1736111,2002
blairsden,ca,sphere,10.0,1/21/2008,39.7811111,-120.6155556,1946
iron mountain,mi,light,180.0,7/4/2012,45.8202778,-88.0658333,2012
charlotte,nc,disk,600.0,10/8/2007,35.2269444,-80.8433333,2007
wethersfield,ct,cylinder,120.0,8/5/2009,41.7141667,-72.6530556,2003
sayreville,nj,light,900.0,4/16/2005,40.4591667,-74.3613889,1972
seattle,wa,other,3.4,5/11/2000,47.6063889,-122.3308333,2000
orchard park,ny,disk,3.0,12/12/2011,42.7675,-78.7441667,2011
santa rosa,ca,light,300.0,7/4/2012,38.4405556,-122.7133333,2012
san diego,ca,light,9000.0,9/1/2004,32.7152778,-117.1563889,2004
monterey,ca,circle,10.0,4/22/2003,36.6002778,-121.8936111,2003
eagle river,ak,light,120.0,10/30/2012,61.3213889,-149.5677778,2012
dubuque,ia,oval,600.0,8/30/2013,42.5005556,-90.6644444,2013
chelan,wa,light,30.0,7/14/2013,47.8411111,-120.0152778,2013
kingsville,tx,oval,15.0,11/8/2005,27.5155556,-97.8558333,2005
newberg,or,light,300.0,7/6/2010,45.3002778,-122.9719444,2010
college place,wa,cigar,1.0,5/12/2009,46.0494444,-118.3872222,2009
portageville,mo,disk,300.0,4/22/2003,36.4252778,-89.6994444,2003
villa park,il,light,1380.0,10/30/2006,41.8897222,-87.9888889,2006
durham,nc,sphere,180.0,6/4/2004,35.9938889,-78.8988889,2004
riverhead,ny,fireball,480.0,8/30/2013,40.9169444,-72.6625,2013
redding,ca,changing,10800.0,2/8/2011,40.5866667,-122.3905556,2011
brunswick,me,other,30.0,6/18/2003,43.9144444,-69.9658333,1995
st. louis,mo,triangle,60.0,4/18/2014,38.6272222,-90.1977778,2013
kernersville,nc,light,60.0,12/23/2013,36.1197222,-80.0738889,2013
phoenix,az,rectangle,120.0,9/2/2005,33.4483333,-112.0733333,2005
parma,oh,sphere,300.0,8/16/2002,41.4047222,-81.7230556,2002
tonawanda,ny,circle,600.0,7/19/2010,43.0202778,-78.8805556,2010
morganton,nc,fireball,5.0,12/2/2000,35.7452778,-81.685,2000
sacramento,ca,other,900.0,5/12/2011,38.5816667,-121.4933333,2011
solon,oh,other,10.0,11/11/2003,41.3897222,-81.4413889,2003
los angeles,ca,circle,600.0,7/3/2013,34.0522222,-118.2427778,2013
jacksonville beach,fl,changing,180.0,1/31/2004,30.2944444,-81.3933333,1973
gleason,wi,sphere,2.0,2/14/2006,45.3088889,-89.4963889,2005
bridgeport,ct,circle,10.0,7/4/2011,41.1669444,-73.2052778,2011
bedford,tx,oval,15.0,4/16/2005,32.8438889,-97.1427778,2005
san diego,ca,formation,2700.0,8/30/2013,32.7152778,-117.1563889,2013
raleigh,nc,circle,5.0,12/12/2011,35.7719444,-78.6388889,2011
clanton,al,light,300.0,12/3/2004,32.8386111,-86.6294444,2004
reno,nv,light,60.0,8/20/2001,39.5297222,-119.8127778,2001
belmont,ms,formation,480.0,5/2/2014,34.5097222,-88.2091667,2014
fulton,il,fireball,1800.0,7/14/2013,41.8672222,-90.1594444,2013
new smyrna beach,fl,fireball,120.0,12/20/2012,29.0255556,-80.9272222,2012
greendale (sw suburb of milwaukee),wi,light,15.0,4/16/2005,42.9405556,-87.9958333,2005
tarpon springs,fl,other,1.0,11/19/2012,28.1458333,-82.7569444,2012
stanwood,wa,light,5400.0,2/14/2006,48.2413889,-122.3694444,2006
vista,ca,triangle,420.0,10/8/2007,33.2,-117.2416667,2007
washington,mo,disk,180.0,5/14/2002,38.5580556,-91.0119444,2002
myrtle beach,sc,flash,900.0,5/15/2013,33.6888889,-78.8869444,2012
miami,fl,light,120.0,2/1/2007,25.7738889,-80.1938889,2007
galway,ny,light,300.0,12/9/2000,43.0186111,-74.0319444,2000
culloden,wv,light,900.0,6/4/2004,38.42,-82.0555556,2004
prescott valley,az,formation,1200.0,2/16/2000,34.61,-112.315,2000
port angeles,wa,light,120.0,8/24/2010,48.1183333,-123.4294444,2010
wilkes-barre,pa,light,30.0,8/12/2008,41.2458333,-75.8816667,2008
longmont (approx 8 miles south of&#44 co-i25 interchg),co,light,1.0,10/12/2001,40.1672222,-105.1013889,1998
washougal,wa,other,10.0,6/20/2005,45.5827778,-122.3522222,2005
spotsylvania,va,disk,30.0,3/18/2014,38.2008333,-77.5894444,1994
mojave,ca,diamond,28800.0,8/11/2004,35.0525,-118.1730556,2004
boyce,va,oval,10.0,3/13/2012,39.0930556,-78.0597222,2011
san clemente,ca,teardrop,5.0,10/10/2011,33.4269444,-117.6111111,2011
elk grove,ca,flash,3.0,1/30/2014,38.4088889,-121.3705556,2014
spring valley,ca,fireball,300.0,8/7/2007,32.7447222,-116.9980556,2007
phoenix,az,formation,30.0,11/4/2012,33.4483333,-112.0733333,2012
gulf breeze,fl,fireball,10.0,3/16/2000,30.3569444,-87.1638889,2000
erie (countryside),pa,circle,600.0,11/20/2002,42.1291667,-80.0852778,1974
la mesa,ca,light,600.0,2/14/2010,32.7677778,-117.0222222,2010
canyon lake,tx,light,73800.0,10/8/2007,29.875,-98.2622222,2007
manassas,va,circle,180.0,1/17/2004,38.7508333,-77.4755556,2003
brady,tx,other,900.0,10/31/2008,31.135,-99.3347222,2008
coconut creek,fl,triangle,60.0,9/24/2012,26.2513889,-80.1791667,2012
new york city (brooklyn),ny,light,3.0,9/28/2002,40.7141667,-74.0063889,1999
baton rouge,la,fireball,420.0,8/14/2007,30.4505556,-91.1544444,2007
cascade,ia,light,3.0,8/14/2007,42.2986111,-91.0147222,2007
olympia,wa,light,2.0,7/23/2000,47.0380556,-122.8994444,2000
corydon,ky,disk,30.0,4/27/2004,37.7433333,-87.7038889,1967
baileyton,tn,triangle,480.0,3/4/2008,36.3341667,-82.8369444,2008
shell bluff,ga,light,120.0,3/4/2008,33.1477778,-81.8980556,2004
lyndhurst,nj,fireball,28.0,8/5/2012,40.8119444,-74.1247222,2012
modesto,ca,fireball,3600.0,7/25/2004,37.6391667,-120.9958333,2004
st. charles,il,sphere,1680.0,6/12/2011,41.9141667,-88.3086111,2011
quantico,va,light,15.0,8/5/2001,38.5222222,-77.2938889,2001
wartrace,tn,triangle,25200.0,10/27/2004,35.5272222,-86.3336111,2004
chicago,il,fireball,1350.0,6/18/2004,41.85,-87.65,2003
temecula,ca,light,10.0,11/9/2004,33.4936111,-117.1475,2004
south amherst,oh,circle,60.0,7/8/2004,41.3558333,-82.2538889,2004
college station,tx,triangle,30.0,3/4/2008,30.6277778,-96.3341667,2008
new york city (brooklyn),ny,oval,900.0,11/9/2002,40.7141667,-74.0063889,1999
newburgh,ny,triangle,180.0,1/21/2008,41.5033333,-74.0108333,2008
philomath,or,light,360.0,8/30/2013,44.5402778,-123.3663889,2013
tipp city,oh,triangle,10.0,3/19/2009,39.9583333,-84.1722222,2009
reno,nv,light,20.0,12/12/2009,39.5297222,-119.8127778,2009
seymour,ct,oval,600.0,6/2/2013,41.3966667,-73.0763889,2013
belmont,ca,light,1.0,11/19/1998,37.5202778,-122.2747222,1998
phoenix,az,light,240.0,9/2/2005,33.4483333,-112.0733333,2005
craigsville,wv,light,120.0,7/5/2005,38.3305556,-80.6533333,2005
el rito,nm,fireball,900.0,11/26/2003,36.3433333,-106.1880556,2003
richwood,wv,formation,2.0,12/2/2013,38.2247222,-80.5333333,1996
touchet,wa,light,300.0,3/19/2002,46.04,-118.6711111,2002
north bergen,nj,circle,5.0,12/12/2011,40.8041667,-74.0125,2011
aurora,co,disk,600.0,3/2/2004,39.7294444,-104.8313889,2004
ladson,sc,light,120.0,2/18/2013,32.9855556,-80.11,2013
north miami,fl,other,240.0,8/30/2013,25.8897222,-80.1869444,2013
knoxville,tn,fireball,3600.0,7/6/2011,35.9605556,-83.9208333,2011
frankfort,il,triangle,120.0,5/15/2013,41.4958333,-87.8486111,2013
twin peaks,ca,circle,20.0,4/13/2010,34.2388889,-117.2327778,2010
higginsville,mo,other,900.0,12/16/1999,39.0725,-93.7169444,1994
oakland,ca,light,5.0,12/5/2001,37.8044444,-122.2697222,2001
lake havasu city,az,sphere,120.0,8/7/2011,34.4838889,-114.3216667,2011
lantana,tx,changing,360.0,10/10/2011,26.1927778,-97.5786111,2011
los angeles,ca,fireball,2.0,12/23/2013,34.0522222,-118.2427778,1994
san benito,tx,chevron,300.0,9/4/2003,26.1322222,-97.6308333,2003
hamilton,al,light,180.0,12/12/2011,34.1422222,-87.9886111,2011
independence,mo,light,3.0,11/20/2001,39.0911111,-94.4152778,2001
asbury park,nj,fireball,180.0,10/30/2012,40.2202778,-74.0125,2012
alloway,nj,other,21600.0,7/28/2010,39.5608333,-75.3627778,2010
elcho,wi,fireball,600.0,11/9/2004,45.4358333,-89.1833333,2004
scottsdale,az,triangle,120.0,5/15/2006,33.5091667,-111.8983333,2005
toledo,oh,triangle,10800.0,10/8/2007,41.6638889,-83.5552778,2007
atlantic highlands,nj,light,7.0,8/21/2011,40.4077778,-74.0347222,2011
canfield,oh,fireball,300.0,8/7/2011,41.025,-80.7611111,2011
brewer,me,diamond,120.0,7/8/2004,44.7966667,-68.7619444,2004
downingtown,pa,cylinder,60.0,11/3/2005,40.0063889,-75.7036111,2005
sparks,nv,light,180.0,7/4/2012,39.535,-119.7516667,2003
fayetteville,nc,circle,10.0,1/17/2004,35.0525,-78.8786111,2003
hanover,md,disk,30.0,5/15/2006,39.1927778,-76.7244444,2006
pleasanton,tx,circle,240.0,12/12/2011,28.9669444,-98.4783333,2011
rimersburg,pa,circle,180.0,7/5/2005,41.0413889,-79.5033333,2005
freehold,nj,light,10800.0,2/1/2007,40.26,-74.2741667,2006
durham,nh,rectangle,10.0,10/2/1999,43.1338889,-70.9269444,1999
roslindale,ma,oval,5.0,1/21/2008,42.2911111,-71.125,2008
puyallup,wa,fireball,10800.0,8/5/2012,47.1855556,-122.2916667,2012
chatham,nj,disk,600.0,1/11/2002,40.7408333,-74.3841667,1997
edwardsburg,mi,cigar,300.0,6/12/2008,41.7955556,-86.0808333,2008
bridgeville,ca,triangle,4.0,10/30/2006,40.4694444,-123.7986111,2006
san miguel,ca,triangle,120.0,9/30/2013,35.7525,-120.6952778,2013
east hampton,ct,disk,120.0,10/30/2006,41.5758333,-72.5030556,1956
pittsburgh,pa,other,60.0,9/24/2012,40.4405556,-79.9961111,2012
roswell,ga,formation,10.0,10/12/2001,34.0230556,-84.3616667,2001
miami,fl,triangle,3000.0,5/12/2009,25.7738889,-80.1938889,2009
portland,or,light,4.0,4/27/2007,45.5236111,-122.675,2007
san antonio,tx,circle,2.0,7/15/2005,29.4238889,-98.4933333,2005
paris,ky,light,4.0,6/3/2010,38.2097222,-84.2530556,2010
little rock (east of),ar,disk,4.0,5/12/2009,34.7463889,-92.2894444,1997
hampton,nh,sphere,180.0,8/19/2012,42.9375,-70.8394444,2012
el toro,ca,other,900.0,7/1/2002,33.6469444,-117.6827778,2002
phoenix,az,light,4500.0,10/27/2004,33.4483333,-112.0733333,2004
salt lake city,ut,light,12.0,7/1/2002,40.7608333,-111.8902778,2002
nashville,tn,sphere,600.0,2/4/2013,36.1658333,-86.7844444,2013
chandler,az,circle,300.0,2/24/2007,33.3061111,-111.8405556,2007
sandusky,oh,sphere,1800.0,2/5/2003,41.4488889,-82.7080556,1999
gloucester,ma,cone,600.0,8/7/2007,42.6158333,-70.6625,2006
phoenix,az,other,1800.0,7/5/2005,33.4483333,-112.0733333,1997
van nuys,ca,egg,300.0,3/11/2003,34.1866667,-118.4480556,2003
algona,wa,light,720.0,8/19/2012,47.2791667,-122.2508333,2012
delray beach,fl,disk,120.0,10/30/2006,26.4611111,-80.0730556,2006
vernon hills,il,circle,180.0,8/5/2001,42.2194444,-87.9794444,2001
huntsville,al,triangle,600.0,8/5/2001,34.7302778,-86.5861111,1998
moreno valley,ca,circle,2.0,7/5/2005,33.9375,-117.2297222,2004
hailey,id,fireball,10.0,7/16/2006,43.5197222,-114.3144444,2006
new york city (staten island),ny,circle,300.0,8/5/2001,40.7141667,-74.0063889,2001
fort collins,co,disk,5400.0,12/2/2013,40.5852778,-105.0838889,2013
rock stream,ny,sphere,60.0,5/13/2012,42.4711111,-76.9277778,2012
jackson,ga,other,10.0,3/13/2012,33.2944444,-83.9661111,2012
seattle,wa,teardrop,180.0,2/14/2008,47.6063889,-122.3308333,2008
southfield,mi,other,5.0,11/16/2002,42.4733333,-83.2219444,2002
cheektowaga,ny,triangle,60.0,7/30/2002,42.9033333,-78.755,2002
ironton,mo,light,3600.0,12/7/2006,37.5972222,-90.6272222,1985
st. cloud (south of),mn,other,60.0,12/23/2002,45.5608333,-94.1622222,2002
rotan,tx,sphere,1800.0,5/2/2011,32.8519444,-100.4652778,1961
freehold (canada),nj,egg,120.0,8/24/2010,40.26,-74.2741667,2010
hayden,id,diamond,240.0,3/18/2014,47.7661111,-116.7855556,2014
syracuse,ny,oval,600.0,3/8/2007,43.0480556,-76.1477778,1987
chicago,il,sphere,5.0,1/19/2005,41.85,-87.65,2001
bay village,oh,sphere,600.0,10/30/2012,41.4847222,-81.9222222,2012
tucker,ga,changing,300.0,11/21/1998,33.8544444,-84.2172222,1998
san bernardino,ca,sphere,60.0,10/19/2011,34.1083333,-117.2888889,2011
grand rapids (north of),mi,fireball,60.0,11/19/1998,42.9633333,-85.6680556,1998
scottsboro,al,oval,1800.0,6/12/2008,34.6722222,-86.0341667,2008
jamestown,sc,cigar,60.0,11/21/2010,33.2858333,-79.6927778,2010
el paso,tx,circle,900.0,2/14/2006,31.7586111,-106.4863889,2006
denton,tx,circle,4.0,6/12/2007,33.2147222,-97.1327778,2007
wakefield,ma,egg,120.0,3/4/2003,42.5063889,-71.0733333,1984
kettleman city,ca,light,1200.0,2/18/2001,36.0083333,-119.9608333,2000
longs,sc,light,300.0,2/4/2013,33.9383333,-78.7333333,2013
pasadena,tx,light,600.0,6/18/1998,29.6908333,-95.2088889,1995
louisa,ky,cigar,10.0,8/7/2011,38.1141667,-82.6033333,2011
san leandro,ca,circle,900.0,6/18/2004,37.725,-122.155,2004
tyler,tx,other,780.0,3/19/2009,32.3511111,-95.3008333,2009
las vegas,nm,other,1800.0,1/11/2002,35.5938889,-105.2233333,2002
santa barbara,ca,circle,120.0,11/16/2002,34.4208333,-119.6972222,2002
memphis,tn,light,15.0,10/8/2007,35.1494444,-90.0488889,2007
san diego  (u. s. naval base),ca,oval,900.0,10/19/1999,32.7152778,-117.1563889,1969
elkhorn,wi,light,2.0,9/30/2013,42.6727778,-88.5444444,2013
portland,or,chevron,30.0,5/12/2009,45.5236111,-122.675,2009
arnolds park,ia,triangle,30.0,11/17/1999,43.3727778,-95.1236111,1996
willard,mo,cigar,2700.0,3/19/2002,37.305,-93.4283333,1996
san jose,ca,light,120.0,5/15/2006,37.3394444,-121.8938889,2006
portsmouth,oh,changing,900.0,9/13/2002,38.7316667,-82.9977778,2002
parlier,ca,light,300.0,7/5/2008,36.6116667,-119.5261111,2008
wentzville,mo,oval,1200.0,8/5/2012,38.8113889,-90.8527778,2012
phoenix,az,circle,7200.0,6/6/2000,33.4483333,-112.0733333,2000
meridian,id,disk,1200.0,6/18/2003,43.6122222,-116.3905556,1977
potsdam,ny,fireball,4.0,10/10/2011,44.6697222,-74.9816667,2011
lafayette,co,other,7200.0,1/28/1999,39.9936111,-105.0891667,1998
klamath falls,or,light,90.0,7/26/2002,42.225,-121.7805556,2002
san antonio,tx,formation,1200.0,9/30/2013,29.4238889,-98.4933333,2013
nehalem,or,light,5.0,2/4/2013,45.7202778,-123.8927778,2013
purcell,ok,sphere,60.0,12/23/2013,35.0136111,-97.3608333,2013
portage,in,light,60.0,7/10/2010,41.5758333,-87.1761111,2010
imperial,mo,circle,5.0,6/2/2013,38.3697222,-90.3783333,2013
minneapolis,mn,sphere,60.0,11/1/1998,44.98,-93.2636111,1998
los angeles,ca,cigar,90.0,5/14/2002,34.0522222,-118.2427778,2002
ithaca,ny,teardrop,10.0,8/5/2001,42.4405556,-76.4969444,2000
new haven,in,teardrop,120.0,8/24/2004,41.0705556,-85.0144444,2004
waldorf,md,light,8.0,8/28/2003,38.6244444,-76.9394444,2003
myrtle beach,sc,fireball,2.0,8/5/2012,33.6888889,-78.8869444,2012
st. louis,mo,other,1.0,3/21/2003,38.6272222,-90.1977778,2002
redding,ca,egg,120.0,10/30/2006,40.5866667,-122.3905556,2006
galveston,tx,fireball,120.0,6/3/2010,29.3011111,-94.7975,2010
belleville,ks,triangle,30.0,2/1/2007,39.8244444,-97.6322222,1989
wallingford,ct,light,300.0,10/8/2007,41.4569444,-72.8236111,2007
wellsboro,pa,other,600.0,12/12/2009,41.7486111,-77.3008333,2009
barryton,mi,circle,0.5,1/19/2005,43.7525,-85.1469444,2005
sun lakes,az,circle,180.0,12/23/2013,33.2111111,-111.8747222,2013
plymouth,mn,oval,10.0,10/27/2004,45.0105556,-93.4552778,2004
little falls,nj,cylinder,345600.0,3/19/2009,40.8688889,-74.2086111,2009
sacramento,ca,changing,1800.0,11/8/2005,38.5816667,-121.4933333,1991
ball ground,ga,circle,60.0,1/10/2009,34.3380556,-84.3766667,2009
new albany,in,fireball,120.0,8/12/2008,38.2855556,-85.8241667,2008
export,pa,fireball,10.0,8/16/2002,40.4180556,-79.6258333,2002
victor,ny,sphere,120.0,12/12/2009,42.9825,-77.4091667,2008
victorville,ca,light,15.0,10/31/2008,34.5361111,-117.2902778,2008
wichita,ks,cone,120.0,9/15/2005,37.6922222,-97.3372222,2005
franklin,ma,triangle,8.0,2/24/2007,42.0833333,-71.3972222,2006
monroeville,nj,other,30.0,3/19/2009,39.6288889,-75.1597222,2009
norfolk,va,disk,30.0,10/30/2012,36.8466667,-76.2855556,2012
east orange,nj,fireball,180.0,7/4/2011,40.7672222,-74.2052778,2011
tulelake,ca,circle,600.0,3/11/2003,41.9561111,-121.4763889,2003
augusta,ga,triangle,600.0,8/7/2007,33.4708333,-81.975,1968
pinehurst,nc,triangle,30.0,12/3/2004,35.1952778,-79.4697222,1995
sanford,mi,triangle,30.0,2/24/2007,43.6727778,-84.3805556,2007
richfield,mn,light,60.0,8/5/2012,44.8833333,-93.2827778,2012
newington,ct,oval,25.0,1/12/2012,41.6977778,-72.7241667,2012
oceanside,ny,disk,600.0,4/16/2005,40.6386111,-73.6405556,2005
wautoma,wi,light,5.0,6/12/2007,44.0747222,-89.2877778,2007
new york city (manhattan),ny,sphere,20.0,12/23/2002,40.7141667,-74.0063889,2002
smithshire,il,other,60.0,5/15/2006,40.7927778,-90.7797222,2005
elkhart,in,sphere,1200.0,5/13/2012,41.6819444,-85.9766667,2011
tulsa,ok,formation,900.0,11/26/2003,36.1538889,-95.9925,2003
buckeye (outside),az,light,300.0,8/5/2001,33.3702778,-112.5830556,2001
reseda,ca,formation,10.0,1/12/2012,34.2011111,-118.5355556,1975
crestline,ca,light,1800.0,1/17/2004,34.2419444,-117.2847222,2001
palo alto,ca,other,20.0,11/21/2010,37.4419444,-122.1419444,2010
surprise,az,light,600.0,4/4/2014,33.6305556,-112.3325,2014
oregon,oh,oval,3600.0,8/7/2007,41.6436111,-83.4869444,2007
frackville,pa,circle,180.0,3/21/2003,40.7838889,-76.2305556,2003
bristol,tn,triangle,25.0,12/14/2004,36.595,-82.1888889,2004
cocoa beach,fl,oval,7200.0,9/9/2004,28.3197222,-80.6077778,2004
san clemente,ca,fireball,180.0,11/21/2010,33.4269444,-117.6111111,2010
chattanooga,tn,circle,60.0,5/15/2013,35.0455556,-85.3097222,2013
hattiesburg,ms,triangle,120.0,12/3/2004,31.3269444,-89.2902778,1974
seattle,wa,circle,60.0,10/30/2006,47.6063889,-122.3308333,2006
emerald isle,nc,fireball,120.0,8/7/2011,34.6777778,-76.9511111,2011
hastings,mn,triangle,120.0,12/2/2000,44.7433333,-92.8522222,1968
florissant,mo,formation,120.0,1/5/2011,38.7891667,-90.3225,2009
silver springs,nv,triangle,240.0,2/24/2007,39.4155556,-119.2236111,2006
oregon city,or,light,300.0,6/3/2010,45.3575,-122.6055556,2010
key largo,fl,chevron,10.0,8/21/2011,25.0861111,-80.4475,2011
sapulpa,ok,circle,10800.0,3/4/2008,35.9986111,-96.1138889,2007
peotone,il,light,5.0,12/12/2009,41.3322222,-87.7852778,2009
eugene,or,other,900.0,7/6/2011,44.0522222,-123.0855556,2011
temple city,ca,diamond,300.0,2/27/2014,34.1072222,-118.0569444,2014
lakeville,mn,disk,300.0,8/30/2013,44.6497222,-93.2425,2013
miami,fl,disk,120.0,3/11/2006,25.7738889,-80.1938889,2006
fayetteville,nc,light,600.0,1/12/2012,35.0525,-78.8786111,2011
salt lake city,ut,circle,20.0,11/21/2010,40.7608333,-111.8902778,2010
long branch,nj,light,120.0,6/12/2008,40.3041667,-73.9927778,2008
wenatchee,wa,light,1.0,11/9/2004,47.4236111,-120.3091667,2004
madison,wi,light,600.0,7/3/2013,43.0730556,-89.4011111,2013
riverside,ca,other,600.0,10/2/1999,33.9533333,-117.3952778,1999
langdon,nd,flash,300.0,1/10/2009,48.76,-98.3677778,2008
tinley park,il,light,900.0,11/2/2004,41.5733333,-87.7844444,2001
loman,mn,light,2100.0,7/16/2006,48.5127778,-93.8027778,2006
frankfort,ny,circle,7200.0,8/5/2009,43.0388889,-75.0708333,2009
lemoore,ca,cross,60.0,8/30/2013,36.3008333,-119.7819444,2013
orland park,il,light,900.0,2/14/2006,41.6302778,-87.8538889,2005
roanoke,va,fireball,120.0,6/18/1998,37.2708333,-79.9416667,1998
keizer,or,oval,180.0,8/7/2007,44.9902778,-123.025,2007
everett,wa,teardrop,1200.0,11/28/2007,47.9791667,-122.2008333,2007
woodstock,ga,other,120.0,6/2/2013,34.1013889,-84.5194444,2013
seattle (shoreline district),wa,light,45.0,1/16/2014,47.6063889,-122.3308333,2014
bremen,al,fireball,15.0,12/7/2006,33.9944444,-86.97,2006
berlin,ct,chevron,120.0,12/2/2013,41.6213889,-72.7461111,2013
raleigh,nc,triangle,600.0,2/27/2014,35.7719444,-78.6388889,2014
russellville,ar,cylinder,4200.0,4/27/2004,35.2783333,-93.1336111,2004
carlsbad,ca,light,2700.0,1/19/2005,33.1580556,-117.3497222,2005
custer,wi,circle,300.0,8/30/2013,44.5105556,-89.4261111,2013
hollywood,ca,other,360.0,8/10/1999,34.0983333,-118.3258333,1999
goodyear,az,other,1200.0,10/12/2001,33.4352778,-112.3575,2001
los osos,ca,sphere,60600.0,1/31/2011,35.3111111,-120.8313889,1998
chino hills,ca,diamond,300.0,6/2/2013,33.8936111,-117.7263889,2013
catalina (35 mi north of tucson),az,sphere,45.0,9/19/2002,32.5,-110.9205556,1999
las animas,co,oval,120.0,3/9/2004,38.0666667,-103.2222222,2004
greene,me,diamond,7200.0,8/5/2012,44.1897222,-70.1408333,2012
winston,or,light,2.0,9/26/1998,43.1225,-123.4113889,1998
cape canaveral,fl,sphere,20.0,12/2/2000,28.4055556,-80.605,1969
grand rapids,mi,circle,2.0,8/5/2009,42.9633333,-85.6680556,2009
woodbury,ct,oval,1800.0,3/21/2003,41.5444444,-73.2094444,2003
san bernardino,ca,oval,3600.0,8/24/2004,34.1083333,-117.2888889,2004
holbrook,az,other,0.1,12/12/2011,34.9022222,-110.1575,2011
vassalboro,me,light,300.0,12/12/2009,44.4591667,-69.6780556,2009
murfreesboro,tn,sphere,6.0,12/5/2001,35.8455556,-86.3902778,1999
katy,tx,light,15.0,4/16/2005,29.7855556,-95.8241667,2005
lawton,ok,fireball,1200.0,10/11/2005,34.6086111,-98.39,2005
farmington,mo,other,2.0,7/3/2013,37.7808333,-90.4216667,2013
portland,or,teardrop,15.0,9/2/2005,45.5236111,-122.675,2005
allen,md,sphere,900.0,10/30/2006,38.2872222,-75.6883333,1971
cleveland,oh,disk,5.0,11/23/1999,41.4994444,-81.6955556,1999
dallas,ga,sphere,1200.0,1/10/2014,33.9236111,-84.8408333,2014
new york city,ny,triangle,300.0,3/21/2003,40.7141667,-74.0063889,1995
zionsville,in,changing,900.0,7/6/2010,39.9508333,-86.2619444,2010
maynard,ma,cylinder,120.0,7/28/2010,42.4333333,-71.45,2010
duquesne,pa,other,30.0,3/21/2003,40.3813889,-79.86,2003
keene,nh,triangle,60.0,8/27/2009,42.9336111,-72.2786111,2009
keizer,or,fireball,30.0,10/23/2013,44.9902778,-123.025,2013
pembroke pines,fl,light,300.0,12/3/2004,26.0027778,-80.2241667,2004
long beach,ca,light,180.0,11/20/2001,33.7669444,-118.1883333,2001
lancaster,pa,other,1800.0,10/30/2012,40.0377778,-76.3058333,1990
tavares,fl,cigar,180.0,9/12/1999,28.8038889,-81.7258333,1999
ben wheeler,tx,sphere,30.0,2/3/2012,32.4458333,-95.7036111,2012
south pasadena,ca,chevron,30.0,6/6/2000,34.1161111,-118.1494444,2000
durham,nc,disk,30.0,12/12/2011,35.9938889,-78.8988889,2011
scituate,ma,light,2100.0,8/16/2002,42.1958333,-70.7263889,2002
oceanside,ca,fireball,9.0,12/12/2011,33.1958333,-117.3786111,2007
phelan,ca,circle,600.0,8/12/2008,34.4261111,-117.5713889,2008
seattle,wa,diamond,30.0,6/23/2004,47.6063889,-122.3308333,2004
cleveland heights,oh,circle,630.0,7/3/2013,41.52,-81.5563889,2013
caldwell,id,triangle,300.0,2/1/2007,43.6630556,-116.6863889,1994
portland,or,triangle,6.0,5/15/2006,45.5236111,-122.675,2006
vinita park,mo,circle,1800.0,5/2/2011,38.69,-90.3425,2011
jersey city,nj,sphere,90.0,6/6/2000,40.7280556,-74.0780556,2000
eugene,or,oval,240.0,5/29/2012,44.0522222,-123.0855556,2012
denver,co,cigar,1200.0,5/15/2006,39.7391667,-104.9841667,2005
ft. bragg,ca,other,300.0,9/29/2004,39.4458333,-123.8041667,2004
littleton,co,disk,30.0,5/2/2003,39.6133333,-105.0161111,2003
manchester,nh,sphere,300.0,2/27/2014,42.9955556,-71.4552778,2014
elk grove,il,other,300.0,7/8/2004,42.0072222,-87.9402778,2004
avon,nc,light,4.0,11/9/2004,35.3519444,-75.5108333,2004
powderhorn,co,disk,300.0,7/3/2013,38.2769444,-107.0952778,2007
chicago (irving park road),il,triangle,120.0,9/19/2002,41.85,-87.65,1999
new york city (manhattan),ny,light,2.0,1/10/2009,40.7141667,-74.0063889,2007
las vegas,nv,light,7200.0,5/15/2006,36.175,-115.1363889,2006
zim,mn,circle,600.0,12/12/2013,47.3069444,-92.6030556,2013
cape coral,fl,diamond,2400.0,3/7/1998,26.5625,-81.9497222,1998
yucaipa,ca,light,2700.0,8/7/2011,34.0336111,-117.0422222,2011
vergas,mn,formation,120.0,8/27/2009,46.6566667,-95.805,2009
berlin heights,oh,light,3600.0,9/30/2013,41.3252778,-82.4933333,2013
lincoln city,or,other,7200.0,1/24/2014,44.9583333,-124.0166667,2013
franklin,ky,oval,300.0,2/18/2013,36.7222222,-86.5772222,1974
hackettstown,nj,light,300.0,1/10/2014,40.8538889,-74.8294444,2013
leavenworth,ks,fireball,300.0,3/13/2012,39.3111111,-94.9222222,2012
toms river,nj,circle,5.0,5/15/2013,39.9536111,-74.1983333,2012
santa rosa,ca,sphere,60.0,4/24/2014,38.4405556,-122.7133333,2014
kirkland,wa,oval,120.0,9/9/2004,47.6816667,-122.2075,2004
jacksonville,fl,disk,120.0,2/14/2008,30.3319444,-81.6558333,1976
lebanon church,va,cigar,900.0,10/15/2003,39.055,-78.3683333,2003
newton,ia,oval,180.0,12/12/2009,41.6997222,-93.0477778,2009
philadelphia,pa,fireball,300.0,1/10/2009,39.9522222,-75.1641667,2001
state college,pa,light,240.0,5/14/2002,40.7933333,-77.8602778,2002
tucson,az,oval,10.0,1/12/2012,32.2216667,-110.9258333,2012
alberton,mt,circle,3600.0,1/28/1999,47.0016667,-114.4725,1998
murfreesboro,tn,disk,300.0,4/28/2001,35.8455556,-86.3902778,2001
kildeer,il,cylinder,20.0,11/21/2010,42.1705556,-88.0477778,2010
bunnell,fl,changing,600.0,4/13/2010,29.4658333,-81.2580556,2010
kansas city,mo,diamond,7200.0,8/5/2012,39.0997222,-94.5783333,2012
los angeles,ca,sphere,300.0,11/21/2010,34.0522222,-118.2427778,2010
tucson,az,circle,60.0,10/8/2007,32.2216667,-110.9258333,2007
huntington beach,ca,sphere,1800.0,8/7/2011,33.6602778,-117.9983333,1990
newhalen,ak,light,7200.0,11/20/2001,59.72,-154.8972222,2001
boise,id,triangle,300.0,3/2/2004,43.6136111,-116.2025,1996
tucson,az,circle,900.0,4/12/2013,32.2216667,-110.9258333,2013
capitola,ca,light,60.0,10/30/2012,36.9752778,-121.9522222,2012
boise,id,sphere,300.0,1/10/2014,43.6136111,-116.2025,2013
miami,fl,cylinder,2700.0,3/4/2008,25.7738889,-80.1938889,2007
long beach,ca,triangle,15.0,8/7/2011,33.7669444,-118.1883333,1981
brazil,in,sphere,120.0,5/2/2011,39.5236111,-87.125,2011
brunswick,ga,sphere,25.0,2/22/2005,31.1497222,-81.4916667,2005
farmington,nh,light,20.0,12/12/2011,43.3897222,-71.0655556,2011
galesburg,il,circle,300.0,8/30/1999,40.9477778,-90.3711111,1998
garden grove,ca,cylinder,180.0,3/8/2007,33.7738889,-117.9405556,2007
unadilla (rural area (farm) near),ne,triangle,180.0,8/16/2002,40.6833333,-96.2694444,2000
eveleth,mn,light,15.0,3/2/2004,47.4625,-92.5397222,2004
fairfield,ct,light,300.0,6/12/2008,41.1411111,-73.2641667,2008
san diego,ca,triangle,5.0,6/12/2008,32.7152778,-117.1563889,2008
north eastham,ma,fireball,5.0,1/31/2011,41.865,-69.9916667,2011
summerville,sc,circle,10.0,5/13/2012,33.0183333,-80.1758333,2012
north myrtle beach,sc,triangle,1200.0,9/24/2012,33.8158333,-78.6802778,2012
boynton beach,fl,other,8.0,11/4/2002,26.525,-80.0666667,2002
westfield,in,sphere,7200.0,12/12/2009,40.0427778,-86.1275,2009
grove city,oh,formation,180.0,7/14/2013,39.8813889,-83.0930556,2013
half moon bay,ca,circle,600.0,7/28/2010,37.4636111,-122.4275,2010
quincy,ca,cylinder,120.0,2/1/2007,39.9369444,-120.9461111,2007
parkville,md,triangle,10800.0,7/4/2012,39.3772222,-76.54,2012
kelso,wa,fireball,10.0,5/15/2006,46.1469444,-122.9072222,2006
charleston,sc,light,180.0,11/21/2010,32.7763889,-79.9311111,2010
norfolk,va,light,300.0,7/22/2013,36.8466667,-76.2855556,2013
new york city (brooklyn),ny,cross,120.0,7/26/2002,40.7141667,-74.0063889,2002
waukegan,il,oval,7200.0,12/2/2013,42.3636111,-87.8447222,2013
st. cloud,mn,triangle,3600.0,1/10/2009,45.5608333,-94.1622222,2008
las vegas,nv,circle,300.0,9/15/2005,36.175,-115.1363889,2005
springfield,or,fireball,3.0,11/20/2001,44.0463889,-123.0208333,2001
tallahassee,fl,triangle,30.0,2/1/2007,30.4380556,-84.2808333,2006
bozeman,mt,other,600.0,1/10/2014,45.6797222,-111.0377778,2013
redding,ca,light,60.0,7/14/2013,40.5866667,-122.3905556,2013
laconia,nh,light,600.0,10/11/2005,43.5277778,-71.4708333,2005
panama city beach,fl,circle,15.0,11/30/1999,30.1763889,-85.8055556,1996
new haven,ct,fireball,600.0,1/17/2004,41.3080556,-72.9286111,2003
goodland,mo,circle,25.0,3/19/2009,37.6361111,-91.0016667,2009
collinsville,il,fireball,2.0,3/16/2001,38.6702778,-89.9844444,2001
las vegas,nv,disk,14400.0,6/20/2012,36.175,-115.1363889,2012
seattle,wa,triangle,900.0,8/28/2003,47.6063889,-122.3308333,2003
statham,ga,circle,1200.0,4/13/2010,33.965,-83.5966667,2010
dewey,az,sphere,30.0,7/4/2012,34.53,-112.2405556,2012
madison,al,triangle,120.0,1/5/2011,34.6991667,-86.7483333,2010
vancouver,wa,light,120.0,5/2/2014,45.6388889,-122.6602778,2014
lahaina (maui),hi,fireball,90.0,2/4/2013,20.8783333,-156.6825,2013
rockton,il,egg,1800.0,8/5/2001,42.4525,-89.0722222,2001
alden,ny,light,1200.0,1/28/1999,42.9,-78.4922222,1995
jonesboro,ar,diamond,30.0,5/9/2003,35.8422222,-90.7041667,2003
hamilton,mt,oval,3.0,2/14/2014,46.2469444,-114.1594444,2014
pittsburgh,pa,triangle,900.0,11/26/2003,40.4405556,-79.9961111,1986
mishawaka,in,fireball,600.0,8/7/2007,41.6619444,-86.1586111,2007
yorkville,il,changing,10800.0,2/14/2008,41.6411111,-88.4472222,2008
austin,tx,triangle,10.0,5/15/2013,30.2669444,-97.7427778,2013
imperial,ca,disk,35.0,9/24/2012,32.8475,-115.5686111,2012
markham,il,light,60.0,8/7/2007,41.5936111,-87.6947222,2007
pelican lake,wi,oval,10800.0,11/21/2010,45.4994444,-89.1666667,2005
west bloomfield,mi,other,180.0,10/8/2007,42.5377778,-83.2330556,1998
troy,ny,light,900.0,10/27/2004,42.7283333,-73.6922222,2004
salem,oh,formation,5.0,3/13/2012,40.9008333,-80.8569444,2012
soldotna,ak,sphere,7200.0,4/16/2005,60.4877778,-151.0583333,1976
bend,or,circle,420.0,6/20/2012,44.0583333,-121.3141667,2012
hesperia,ca,light,4.0,8/7/2007,34.4263889,-117.3,2007
morgantown,wv,other,120.0,9/1/2004,39.6294444,-79.9561111,2004
olean,ny,triangle,120.0,2/27/2014,42.0775,-78.43,2014
bellingham,wa,light,240.0,7/4/2012,48.7597222,-122.4869444,2012
whitefish,mt,light,15.0,7/5/2008,48.4111111,-114.3366667,2008
washburn,nd,triangle,20.0,11/28/2007,47.2891667,-101.0286111,1995
buffalo,ny,light,300.0,6/12/2007,42.8863889,-78.8786111,2007
greencastle (west of),in,other,600.0,2/24/2001,39.6444444,-86.8647222,1990
lebanon,oh,triangle,300.0,2/18/2001,39.4352778,-84.2030556,1999
burney,ca,disk,1800.0,4/18/2014,40.8825,-121.6597222,1954
alexandria,va,light,900.0,1/17/2004,38.8047222,-77.0472222,2003
taos,nm,disk,60.0,9/1/2004,36.4072222,-105.5725,2004
gill,ma,circle,13.0,4/12/2013,42.6402778,-72.5,2013
big stone gap,va,flash,1.0,3/4/2008,36.8816667,-82.7472222,2007
madison,wi,light,7500.0,1/28/1999,43.0730556,-89.4011111,1998
tinton falls,nj,sphere,180.0,3/23/2004,40.3041667,-74.1008333,2004
orland park,il,fireball,600.0,2/24/2001,41.6302778,-87.8538889,2000
seattle,wa,sphere,180.0,4/27/2007,47.6063889,-122.3308333,2007
dayton,oh,oval,30.0,2/1/2007,39.7588889,-84.1916667,1971
lake stevens,wa,light,180.0,9/28/2003,48.0152778,-122.0625,2003
san rafael,ca,formation,300.0,1/10/2014,37.9736111,-122.53,2014
east haddam,ct,egg,30.0,10/12/2001,41.4530556,-72.4616667,2001
litchfield beach,sc,fireball,10.0,11/4/2012,33.4666667,-79.1,2012
reynoldsville,pa,egg,45.0,3/27/2014,41.0969444,-78.8888889,2014
tacoma,wa,light,30.0,8/5/2001,47.2530556,-122.4430556,2001
gainesville,ga,formation,60.0,2/14/2008,34.2977778,-83.8241667,2008
denver,co,circle,180.0,6/2/2013,39.7391667,-104.9841667,2013
hillsborough,nj,sphere,600.0,8/19/2000,40.4775,-74.6272222,2000
parkville,md,light,120.0,2/8/2011,39.3772222,-76.54,2011
houston,pa,light,20.0,7/5/2008,40.2463889,-80.2116667,2008
arcadia,fl,formation,1200.0,5/12/2011,27.2155556,-81.8586111,2011
erie,pa,fireball,300.0,8/24/2010,42.1291667,-80.0852778,2007
lubbock,tx,cigar,120.0,11/28/2007,33.5777778,-101.8547222,1955
las vegas,nv,light,30.0,2/21/2014,36.175,-115.1363889,2013
garfield,wa,oval,120.0,8/30/2013,47.0080556,-117.14,2013
limerick,me,disk,900.0,5/24/2005,43.6883333,-70.7941667,1991
knoxville,tn,other,120.0,10/30/2006,35.9605556,-83.9208333,2006
modesto,ca,light,60.0,9/24/2012,37.6391667,-120.9958333,2012
west chester,pa,oval,120.0,9/30/2013,39.8494444,-75.3561111,2013
kingston,ny,light,0.5,10/30/2006,41.9269444,-73.9977778,2006
cheektowaga,ny,disk,900.0,2/14/2008,42.9033333,-78.755,1996
virginia beach,va,disk,60.0,4/27/2007,36.8527778,-75.9783333,2007
napa,ca,light,420.0,10/31/2008,38.2972222,-122.2844444,2008
holtsville,ny,other,10.0,1/17/2004,40.8152778,-73.0455556,2003
luling (near),tx,sphere,3.0,10/30/2006,29.6802778,-97.6472222,2006
destin,fl,circle,60.0,7/5/2008,30.3933333,-86.4958333,2008
yankton,sd,triangle,6.0,12/23/2002,42.8711111,-97.3969444,1987
mccomb,oh,triangle,1200.0,6/3/2010,41.1075,-83.7927778,2010
carlisle,pa,chevron,180.0,5/24/2005,40.2013889,-77.1891667,2005
rochester,ny,changing,60.0,8/7/2011,43.1547222,-77.6158333,2011
council bluffs,ia,triangle,180.0,8/5/2012,41.2619444,-95.8608333,2012
frederick,md,circle,900.0,8/5/2012,39.4141667,-77.4108333,2012
exeter,ri,diamond,1200.0,5/29/2011,41.5775,-71.5380556,2011
bristol,tn,light,180.0,6/12/2008,36.595,-82.1888889,1999
sequim,wa,light,180.0,10/10/2011,48.0797222,-123.1005556,2011
tinley park,il,triangle,2700.0,1/10/2009,41.5733333,-87.7844444,2006
austin,tx,light,600.0,6/3/2011,30.2669444,-97.7427778,2011
missoula,mt,sphere,1500.0,3/11/2006,46.8722222,-113.9930556,2006
melbourne,fl,light,1500.0,8/24/2010,28.0833333,-80.6083333,2010
burtonsville,md,circle,120.0,4/28/2001,39.1111111,-76.9327778,2001
baltimore,md,cigar,60.0,12/5/2001,39.2902778,-76.6125,2001
straughn,in,light,3.0,8/10/1999,39.8088889,-85.2913889,1999
tampa,fl,triangle,1.0,3/19/2009,27.9472222,-82.4586111,2009
arcadia,ca,light,300.0,9/9/2004,34.1397222,-118.0344444,2004
williamsburg,va,light,3.0,3/21/2003,37.2705556,-76.7077778,2001
fairbanks,ak,circle,300.0,12/12/2011,64.8377778,-147.7163889,2011
hoxeyville,mi,sphere,1800.0,8/27/2009,44.1938889,-85.7144444,2009
cleburne,tx,triangle,180.0,3/31/2008,32.3475,-97.3863889,1995
portland,or,fireball,25.0,8/30/2013,45.5236111,-122.675,2013
bethany beach,de,sphere,900.0,11/19/2012,38.5394444,-75.0555556,2012
salt lake city,ut,sphere,1260.0,3/19/2002,40.7608333,-111.8902778,2002
colby,ks,changing,45.0,2/1/2007,39.3958333,-101.0519444,2007
lexington,ky,other,30.0,3/19/2009,37.9886111,-84.4777778,2009
ellinwood,ks,fireball,420.0,3/11/2006,38.3555556,-98.5805556,2005
new orleans,la,light,420.0,11/21/2010,29.9544444,-90.075,2008
glendale,az,triangle,900.0,5/15/2013,33.5386111,-112.1852778,2013
tarpon springs,fl,sphere,2.0,12/12/2011,28.1458333,-82.7569444,2011
hurst,tx,triangle,7200.0,10/31/2003,32.8233333,-97.1702778,2003
sheffield lake,oh,flash,2.0,6/9/2009,41.4875,-82.1016667,2009
bartlett,il,light,2700.0,10/31/2003,41.995,-88.1855556,2003
germantown,tn,sphere,8.0,9/28/2002,35.0866667,-89.81,2002
maple glen,pa,rectangle,60.0,6/20/2011,40.1791667,-75.1808333,2011
mammoth lakes,ca,circle,10.0,7/4/2012,37.6486111,-118.9711111,1979
lawrenceburg,ky,disk,300.0,5/15/2006,38.0372222,-84.8966667,1969
palm desert,ca,changing,45.0,6/23/1999,33.7222222,-116.3736111,1999
kentwood,mi,circle,15.0,1/12/2012,42.8694444,-85.6447222,1995
cary,il,fireball,300.0,10/10/2011,42.2119444,-88.2380556,2011
sutton,wv,circle,5.0,2/10/2012,38.6644444,-80.71,2012
elk city,ok,cigar,300.0,1/29/2002,35.4119444,-99.4038889,2002
houston,tx,cylinder,60.0,11/9/1999,29.7630556,-95.3630556,1999
hampstead,nc,triangle,300.0,12/12/2009,34.3675,-77.7108333,2009
lake havasu city,az,circle,3600.0,12/2/2013,34.4838889,-114.3216667,2013
jamestown,nd,changing,600.0,10/12/2001,46.9105556,-98.7080556,1997
round rock,tx,light,600.0,8/24/2004,30.5080556,-97.6786111,2004
naperville,il,cylinder,900.0,11/21/2010,41.7858333,-88.1472222,2010
san diego,ca,sphere,4.0,11/30/1999,32.7152778,-117.1563889,1999
portland (lake oswego and gresham),or,sphere,7200.0,7/26/2002,45.5236111,-122.675,2002
freeport,il,triangle,600.0,12/20/2012,42.2966667,-89.6211111,1997
troy,oh,teardrop,2.0,12/12/2011,40.0394444,-84.2033333,2011
north bergen,nj,disk,720.0,10/30/2006,40.8041667,-74.0125,2006
mount shasta,ca,triangle,5.0,10/30/2006,41.31,-122.3094444,2006
pittsburgh,pa,other,900.0,1/12/2012,40.4405556,-79.9961111,2012
el cajon,ca,diamond,282.0,7/25/2004,32.7947222,-116.9616667,2004
meridian,id,light,30.0,8/10/1999,43.6122222,-116.3905556,1999
new york city (manhattan),ny,disk,2.0,9/17/2000,40.7141667,-74.0063889,1973
scottsdale,az,fireball,5.0,12/2/2000,33.5091667,-111.8983333,2000
cincinnati,oh,sphere,300.0,10/30/2012,39.1619444,-84.4569444,2012
ajo (and southern arizona),az,fireball,7200.0,12/14/2006,32.3716667,-112.86,2006
overland park,ks,other,30.0,2/1/2007,38.9822222,-94.6705556,2006
fort wayne,in,oval,60.0,11/21/2010,41.1305556,-85.1288889,2010
charles town,wv,light,3.0,7/30/2002,39.2888889,-77.86,2002
lindenhurst,ny,circle,300.0,1/21/2008,40.6866667,-73.3738889,2008
granite falls,wa,fireball,60.0,3/6/2001,48.0841667,-121.9675,2001
fort collins,co,sphere,120.0,8/30/2010,40.5852778,-105.0838889,2010
chandler,az,teardrop,3600.0,10/10/2011,33.3061111,-111.8405556,2011
temple terrace,fl,disk,180.0,3/23/2011,28.035,-82.3894444,1980
monroe,wa,light,60.0,1/17/2004,47.8555556,-121.9697222,2003
nacogdoches,tx,rectangle,90.0,12/12/2009,31.6033333,-94.6552778,2009
longwood,fl,oval,450.0,4/27/2007,28.7027778,-81.3386111,2007
portland,or,light,900.0,8/30/1999,45.5236111,-122.675,1999
inglewood,ca,circle,120.0,1/11/2005,33.9616667,-118.3522222,2004
scottsdale,az,light,300.0,10/12/2001,33.5091667,-111.8983333,2001
lake havasu city,az,sphere,60.0,12/20/2012,34.4838889,-114.3216667,2012
wharton,nj,other,360.0,3/4/2008,40.8930556,-74.5822222,2008
los angeles,ca,other,300.0,4/12/2013,34.0522222,-118.2427778,2013
irvine,ca,disk,10.0,3/19/2009,33.6694444,-117.8222222,2008
vancouver,wa,triangle,300.0,9/30/2013,45.6388889,-122.6602778,2013
taylorsville,ut,triangle,3600.0,9/29/2002,40.6677778,-111.9380556,2002
virginia beach,va,sphere,60.0,12/12/2011,36.8527778,-75.9783333,2003
east hampton,ny,circle,30.0,7/19/2010,40.9633333,-72.1852778,2010
st. petersburg,fl,light,180.0,6/12/2008,27.7705556,-82.6794444,2008
ashland,ky,disk,300.0,10/31/2003,38.4783333,-82.6380556,1995
seattle,wa,circle,300.0,10/10/2011,47.6063889,-122.3308333,2011
eureka,ca,changing,300.0,1/24/2012,40.8022222,-124.1625,2012
pleasanton,ca,fireball,2.0,1/24/2014,37.6625,-121.8736111,2014
fairfield,tx,formation,4.0,7/16/2006,31.7244444,-96.165,2006
merced,ca,circle,12600.0,8/30/2013,37.3022222,-120.4819444,2013
jonesboro,ga,light,600.0,2/7/2014,33.5213889,-84.3538889,2014
cedarville,ny,fireball,30.0,11/8/2005,42.9305556,-75.1130556,2005
brea,ca,light,60.0,7/5/2008,33.9166667,-117.8991667,2008
knoxville,tn,light,240.0,11/21/2010,35.9605556,-83.9208333,2010
grass valley,ca,light,7200.0,3/13/2012,39.2191667,-121.06,2012
saint paul,mn,oval,3600.0,4/18/2014,44.9444444,-93.0930556,2014
parsippany,nj,light,420.0,3/19/2009,40.8577778,-74.4263889,2009
mason city,ia,circle,300.0,5/11/2005,43.1536111,-93.2008333,2005
demotte,in,fireball,1.0,8/7/2007,41.195,-87.1986111,2007
ironton,mo,light,1080.0,4/27/2007,37.5972222,-90.6272222,2006
okeechobee,fl,light,60.0,5/13/2012,27.2436111,-80.83,2012
van horne,ia,disk,120.0,8/5/2012,42.0086111,-92.0908333,2012
egan,la,diamond,30.0,3/19/2009,30.2366667,-92.5058333,2009
felton,ca,formation,120.0,10/31/2008,37.0513889,-122.0722222,2008
bothell,wa,oval,60.0,11/19/1998,47.7625,-122.2041667,1998
edina,mn,triangle,180.0,5/24/2005,44.8897222,-93.3497222,2004
tacoma,wa,oval,900.0,7/1/2002,47.2530556,-122.4430556,2002
ravenswood,wv,light,60.0,4/27/2007,38.9480556,-81.7611111,2007
kettleman city,ca,triangle,15.0,4/13/2010,36.0083333,-119.9608333,2010
salisbury,nc,changing,3600.0,10/30/2012,35.6708333,-80.4744444,2012
sneads ferry,nc,other,120.0,10/8/2007,34.5525,-77.3975,2007
manteno,il,cone,600.0,5/12/2011,41.2505556,-87.8313889,2011
madison (north of),wi,light,10.0,10/8/2007,43.0730556,-89.4011111,2007
chicago,il,light,300.0,11/21/2010,41.85,-87.65,2010
cincinnati,oh,fireball,1200.0,7/3/2013,39.1619444,-84.4569444,2013
tahlequah,ok,oval,120.0,4/16/2005,35.9152778,-94.9697222,1965
north plains,or,triangle,60.0,6/18/2003,45.5972222,-122.9922222,2001
glendale,ca,cone,15.0,6/23/2010,34.1425,-118.2541667,2010
mason,oh,formation,300.0,8/5/2009,39.36,-84.31,2009
whittier,ca,fireball,120.0,5/2/2014,33.9791667,-118.0319444,2014
argyle,fl,sphere,30.0,6/18/2004,30.7194444,-86.0444444,2004
flint,mi,fireball,60.0,10/30/2012,43.0125,-83.6875,2012
holland,mi,light,2.0,1/28/1999,42.7875,-86.1088889,1998
waterbury,ct,light,3600.0,10/30/2006,41.5580556,-73.0519444,2006
tukwila,wa,circle,900.0,12/12/2009,47.4741667,-122.2597222,2009
fenton,mo,fireball,3600.0,4/3/2011,38.5130556,-90.4358333,2010
van buren (east of),mo,light,120.0,11/8/2005,36.9955556,-91.0144444,2005
burnt hills,ny,rectangle,120.0,10/23/2013,42.9097222,-73.8955556,1994
seattle (ballard),wa,triangle,60.0,4/13/2010,47.6063889,-122.3308333,2010
myrtle beach,sc,sphere,2700.0,12/12/2009,33.6888889,-78.8869444,2009
kalamazoo,mi,disk,17.0,2/14/2008,42.2916667,-85.5872222,1997
huntington beach,ca,changing,420.0,10/30/2006,33.6602778,-117.9983333,2006
honokaa,hi,circle,120.0,2/4/2013,20.0827778,-155.4725,2012
humble,tx,fireball,120.0,8/5/2009,29.9986111,-95.2619444,2009
florence,ky,sphere,70.0,11/19/2012,38.9988889,-84.6266667,2012
columbus,oh,sphere,8.0,8/19/2012,39.9611111,-82.9988889,2012
houston,tx,light,10800.0,1/31/2004,29.7630556,-95.3630556,2004
stevens point,wi,light,120.0,1/19/2005,44.5236111,-89.5744444,2005
girard,il,other,180.0,10/10/2011,39.4463889,-89.7808333,2011
spring valley,ca,cigar,1200.0,9/2/2005,32.7447222,-116.9980556,2005
asheville,nc,disk,240.0,7/11/2000,35.6008333,-82.5541667,1973
woodland hills,ca,circle,120.0,5/14/2002,34.1683333,-118.605,1965
sauk city,wi,oval,300.0,5/15/2013,43.2708333,-89.7219444,2013
miami,fl,other,30.0,1/24/2014,25.7738889,-80.1938889,2014
eureka,ca,triangle,600.0,10/27/2004,40.8022222,-124.1625,2004
hartland,mi,sphere,600.0,8/7/2011,42.6566667,-83.7530556,2011
sanbornton,nh,disk,300.0,5/15/2006,43.4891667,-71.5827778,2006
wekiva,fl,light,1800.0,6/4/2004,28.7925,-81.4241667,2004
butte,mt,light,300.0,4/27/2007,46.0038889,-112.5338889,2007
pineville,la,formation,600.0,1/28/1999,31.3222222,-92.4341667,1982
tampa,fl,disk,10.0,2/23/2011,27.9472222,-82.4586111,2011
arlington,va,light,300.0,11/21/2010,38.8902778,-77.0844444,2010
norristown,pa,circle,1200.0,12/19/2003,40.1213889,-75.3402778,1997
mesa,az,circle,10.0,6/4/2004,33.4222222,-111.8219444,2004
salem,mo,light,120.0,3/8/2007,37.6455556,-91.5358333,2007
sunnyvale,ca,formation,600.0,10/11/2005,37.3688889,-122.0352778,2005
surprise,az,other,1.5,11/28/2007,33.6305556,-112.3325,2007
summerville,sc,triangle,30.0,5/13/2012,33.0183333,-80.1758333,2012
scottsdale,az,light,15.0,7/11/2000,33.5091667,-111.8983333,2000
darien,il,light,900.0,1/31/2011,41.7519444,-87.9738889,2011
penn yan,ny,flash,180.0,1/31/2011,42.6608333,-77.0541667,2011
sun lakes,az,light,300.0,4/18/2014,33.2111111,-111.8747222,2014
chicago (over lake michigan),il,teardrop,120.0,7/16/2003,41.85,-87.65,2003
newark,nj,light,10.0,10/19/2011,40.7355556,-74.1727778,2011
chino hills,ca,rectangle,10.0,5/2/2014,33.8936111,-117.7263889,2014
bristol,ct,circle,900.0,9/9/2013,41.6716667,-72.9497222,2013
tucson,az,other,60.0,3/18/2014,32.2216667,-110.9258333,1999
fontana,ca,light,4.0,7/25/2004,34.0922222,-117.4341667,2004
santee,ca,circle,10.0,7/3/2013,32.8383333,-116.9730556,2013
high point,nc,triangle,60.0,11/19/2012,35.9555556,-80.0055556,2012
burnsville,mn,triangle,600.0,11/21/2010,44.7677778,-93.2775,2010
knoxville,tn,light,300.0,8/16/2002,35.9605556,-83.9208333,2002
rohnert park,ca,light,15.0,2/16/2000,38.3397222,-122.7,2000
pico rivera,ca,cylinder,300.0,12/16/1999,33.9830556,-118.0958333,1999
roseville,mi,formation,300.0,12/3/2004,42.4972222,-82.9372222,2004
ontario,ca,light,600.0,10/30/2006,34.0633333,-117.65,2006
baltimore,md,formation,10.0,11/20/2002,39.2902778,-76.6125,2002
cut off,la,oval,3600.0,2/28/2013,29.5425,-90.3380556,2013
altoona,pa,fireball,120.0,1/10/2014,40.5186111,-78.395,2014
west chicago,il,light,120.0,5/12/2011,41.85,-87.65,2011
columbia,mo,rectangle,120.0,5/13/2012,38.9516667,-92.3338889,2012
key west,fl,fireball,30.0,10/30/2012,24.5552778,-81.7827778,2012
park  ridge,il,sphere,1320.0,8/12/2008,42.0111111,-87.8405556,2008
seattle,wa,sphere,5400.0,6/12/2008,47.6063889,-122.3308333,2008
fairfax,ca,egg,300.0,10/27/2004,37.9872222,-122.5877778,2004
lost creek,wv,triangle,45.0,10/14/2013,39.1611111,-80.3522222,2013
miami,fl,light,900.0,6/18/2004,25.7738889,-80.1938889,1995
seattle,wa,fireball,1.0,2/22/2002,47.6063889,-122.3308333,2002
norwich,ny,triangle,5.0,4/27/2007,42.5311111,-75.5238889,2007
philadelphia,pa,fireball,1800.0,11/9/2004,39.9522222,-75.1641667,2004
downey,ca,formation,900.0,5/11/2005,33.94,-118.1316667,2005
longmont,co,circle,90.0,7/26/2002,40.1672222,-105.1013889,2002
shelby,al,circle,4800.0,1/21/2008,33.1102778,-86.5841667,2007
murfreesboro,tn,oval,120.0,5/15/2006,35.8455556,-86.3902778,1990
auberry,ca,triangle,15.0,8/27/2009,37.0808333,-119.4844444,2009
johnstown,pa,triangle,120.0,12/2/2000,40.3266667,-78.9222222,1988
prospect heights,il,sphere,600.0,7/3/2013,42.0952778,-87.9375,2013
sun valley,ca,light,60.0,5/12/2009,34.2175,-118.3694444,2009
hayward,ca,sphere,60.0,4/27/2007,37.6688889,-122.0797222,2007
boca raton,fl,disk,18000.0,1/7/2000,26.3583333,-80.0833333,1999
monroe,wi,formation,300.0,9/24/2012,42.6011111,-89.6383333,2012
wewahitchka,fl,disk,600.0,8/28/2003,30.1125,-85.2005556,1974
bastrop county (rural area),tx,light,30.0,10/11/2005,30.1102778,-97.315,2005
weston,mo,changing,900.0,3/4/2008,39.4111111,-94.9013889,2008
washington,pa,disk,900.0,5/15/2006,40.1738889,-80.2463889,2006
mayaguez (puerto rico),pr,oval,5.0,12/20/2000,18.2030556,-67.14,1972
bay village,oh,fireball,90.0,2/4/2013,41.4847222,-81.9222222,2012
vya (ghost town),nv,light,900.0,5/2/2011,41.5922222,-119.8594444,2009
irvine (entering city from the south),ca,oval,180.0,1/28/1999,33.6694444,-117.8222222,1998
fairmont,wa,other,10.0,12/12/2011,47.9930556,-122.8647222,1965
gresham,or,sphere,5.0,7/5/2008,45.4983333,-122.4302778,1980
wayne,me,light,300.0,3/19/2009,44.3486111,-70.0666667,2009
lorton,va,circle,30.0,11/11/2013,38.7041667,-77.2280556,2013
stockton,ca,other,240.0,5/24/1999,37.9577778,-121.2897222,1996
gratis,oh,triangle,900.0,1/28/1999,39.6477778,-84.5272222,1998
arlington,tx,triangle,120.0,11/19/2012,32.7355556,-97.1077778,2012
amityville,ny,changing,900.0,2/24/2007,40.6788889,-73.4175,2007
mchenry,il,fireball,600.0,10/30/2012,42.3333333,-88.2666667,2012
las cruces,nm,fireball,3600.0,11/1/1998,32.3122222,-106.7777778,1997
bagdad,az,other,420.0,2/16/2000,34.5811111,-113.2038889,2000
tucson,az,teardrop,60.0,6/18/2004,32.2216667,-110.9258333,1971
santa ana,ca,sphere,10.0,8/5/2001,33.7455556,-117.8669444,2001
garden city,mi,disk,600.0,3/19/2009,42.3255556,-83.3311111,1982
redwood city,ca,cigar,180.0,5/15/2013,37.4852778,-122.2352778,2013
kingston,ma,disk,600.0,1/31/2011,41.9944444,-70.725,1974
new york city,ny,changing,600.0,12/20/2000,40.7141667,-74.0063889,2000
kingsland,ga,triangle,172800.0,5/24/1999,30.7997222,-81.69,1999
reno,nv,light,900.0,11/1/1998,39.5297222,-119.8127778,1998
st. paul,mn,other,10.0,7/11/2000,44.9444444,-93.0930556,1999
palmyra,mo,sphere,10.0,3/9/2004,39.7941667,-91.5230556,2004
hagerstown,md,triangle,300.0,1/21/2008,39.6416667,-77.7202778,2008
hartsville,sc,light,720.0,1/10/2009,34.3738889,-80.0736111,2009
philadelphia,pa,cigar,120.0,8/5/2009,39.9522222,-75.1641667,2009
los angeles,ca,sphere,20.0,8/5/2001,34.0522222,-118.2427778,2001
sutton (south worcester co.),ma,triangle,10.0,1/31/2011,42.15,-71.7633333,2011
port angeles,wa,diamond,3600.0,8/19/2012,48.1183333,-123.4294444,2012
springfield,il,disk,300.0,10/31/2008,39.8016667,-89.6436111,2008
commerce,ca,light,900.0,3/2/2004,34.0005556,-118.1588889,2004
orlando,fl,other,180.0,4/27/2004,28.5380556,-81.3794444,2004
gardendale,al,other,300.0,9/12/1999,33.66,-86.8127778,1999
virginia beach,va,triangle,15.0,1/10/2009,36.8527778,-75.9783333,2008
carnesville,ga,light,3600.0,3/4/2008,34.3697222,-83.2352778,2007
oceanside,ca,oval,300.0,3/10/2011,33.1958333,-117.3786111,2011
canton,ny,light,3600.0,6/12/2008,44.5955556,-75.1694444,2008
cobb,ca,triangle,300.0,9/24/2012,38.8222222,-122.7219444,2012
harlowton (in general vicinity of malmstrom afb),mt,formation,21600.0,9/12/1999,46.4355556,-109.8336111,1993
bridgehampton,ny,triangle,300.0,4/3/2011,40.9377778,-72.3013889,1997
covington,ky,chevron,180.0,6/20/2005,39.0836111,-84.5086111,2005
mexico,ny,sphere,60.0,5/13/2012,43.4594444,-76.2291667,2012
glidden,ia,disk,60.0,10/15/2002,42.0569444,-94.7286111,1986
libertyville,il,circle,2.0,2/8/2011,42.2830556,-87.9530556,2011
bradenton,fl,sphere,300.0,10/10/2011,27.4986111,-82.575,2011
sacramento,ca,cross,720.0,12/12/2011,38.5816667,-121.4933333,2011
payson,az,disk,300.0,12/7/2006,34.2308333,-111.3244444,1969
meriden,ct,other,120.0,7/6/2011,41.5380556,-72.8075,2011
starr,sc,formation,600.0,11/21/2010,34.3769444,-82.6958333,2010
miami,fl,light,600.0,5/11/2005,25.7738889,-80.1938889,2005
lakeville,ma,circle,10.0,3/19/2009,41.8458333,-70.95,2009
attleboro,ma,other,5.0,3/4/2008,41.9444444,-71.2861111,2007
medford,ny,sphere,60.0,5/13/2012,40.8175,-73.0005556,1997
tinley park,il,triangle,1200.0,10/11/2005,41.5733333,-87.7844444,2005
santa clara,ca,circle,180.0,9/30/2013,37.3541667,-121.9541667,2013
dayton,oh,light,300.0,12/12/2011,39.7588889,-84.1916667,2011
chandler,az,light,600.0,5/15/2013,33.3061111,-111.8405556,2013
key west,fl,other,15.0,2/14/2010,24.5552778,-81.7827778,2009
marsing,id,flash,120.0,11/8/2003,43.5455556,-116.8122222,2003
norman,ok,cigar,120.0,10/19/1999,35.2225,-97.4391667,1999
norfolk,va,chevron,15.0,12/23/2002,36.8466667,-76.2855556,2002
las vegas,nv,circle,10.0,2/28/2013,36.175,-115.1363889,2013
seattle,wa,triangle,30.0,11/9/2004,47.6063889,-122.3308333,2004
north lima,oh,rectangle,180.0,11/20/2001,40.9483333,-80.6591667,2001
portales,nm,formation,10.0,7/11/2000,34.1861111,-103.3338889,1999
ely (20 miles north of),nv,chevron,300.0,8/5/2001,39.2475,-114.8877778,1999
atwater,oh,disk,8.0,4/24/2014,41.0238889,-81.1636111,2014
grant,mi,circle,180.0,4/28/2001,43.3361111,-85.8108333,1991
lockport,il,triangle,10800.0,4/13/2010,41.5894444,-88.0577778,2010
chandler,az,light,300.0,9/17/2000,33.3061111,-111.8405556,2000
san jose,ca,circle,35.0,4/25/2002,37.3394444,-121.8938889,2002
tulsa,ok,circle,20.0,9/24/2012,36.1538889,-95.9925,2012
monterey,ca,sphere,60.0,12/7/2006,36.6002778,-121.8936111,2006
rincon,ga,triangle,45.0,5/12/2009,32.2958333,-81.2355556,2009
san diego,ca,light,120.0,10/15/2003,32.7152778,-117.1563889,2003
gardnerville,nv,light,2160.0,12/7/2006,38.9413889,-119.7486111,2006
hammond,in,light,60.0,10/30/2012,41.5833333,-87.5,2012
playa del rey,ca,circle,1800.0,1/10/2009,33.9488889,-118.4447222,2008
wittman,md,triangle,900.0,4/12/2013,38.7936111,-76.2944444,1975
pittsburgh,pa,fireball,1200.0,10/30/2012,40.4405556,-79.9961111,2012
knoxville,tn,light,45.0,12/2/2013,35.9605556,-83.9208333,2013
scranton,pa,fireball,2.0,10/10/2011,41.4088889,-75.6627778,2011
lansing,mi,light,30.0,5/13/2012,42.7325,-84.5555556,2012
beaverton,or,changing,240.0,2/1/2007,45.4872222,-122.8025,2007
coral springs,fl,circle,240.0,3/4/2008,26.2708333,-80.2708333,2008
arlington,tx,sphere,600.0,7/1/2002,32.7355556,-97.1077778,2002
victoria,mn,other,1200.0,9/9/2013,44.8586111,-93.6613889,2013
lancaster,oh,light,30.0,4/27/2007,39.7136111,-82.5994444,2001
shelby,mt,fireball,5.0,12/14/2004,48.5052778,-111.8561111,2004
palo,ia,light,60.0,2/18/2001,42.0661111,-91.7952778,1989
alvarado,tx,chevron,30.0,10/31/2003,32.4063889,-97.2113889,1997
yakima,wa,changing,600.0,1/28/1999,46.6022222,-120.5047222,1998
el cerrito,ca,light,300.0,8/5/2001,37.9158333,-122.3105556,1954
las vegas,nv,disk,10800.0,5/15/2006,36.175,-115.1363889,1987
port charlotte,fl,light,120.0,5/15/2006,26.9758333,-82.0908333,2006
louisville,ky,light,7.0,1/7/2000,38.2541667,-85.7594444,1999
honolulu,hi,light,240.0,10/25/2011,21.3069444,-157.8583333,2011
medford,or,triangle,6.0,10/8/2007,42.3266667,-122.8744444,2007
tucson,az,disk,300.0,7/5/2008,32.2216667,-110.9258333,2008
cantonment,fl,rectangle,420.0,9/13/2002,30.6083333,-87.34,2002
chesapeake,oh,light,600.0,3/29/2004,38.4277778,-82.4572222,2004
homewood,al,egg,8.0,6/18/2003,33.4716667,-86.8008333,2000
ashtabula (saybrook twnshp.),oh,disk,900.0,8/24/2004,41.865,-80.79,1968
needles,ca,formation,300.0,8/30/2013,34.8480556,-114.6133333,2013
cleveland,tx,cigar,3600.0,8/28/2002,30.3411111,-95.0852778,1997
little falls,mn,light,20.0,3/16/2000,45.9763889,-94.3622222,1999
charlotte,nc,light,600.0,9/9/2013,35.2269444,-80.8433333,2013
morral,oh,light,300.0,9/24/2012,40.6877778,-83.2125,2012
murfreesboro,tn,formation,600.0,8/30/2013,35.8455556,-86.3902778,2013
rohnert park,ca,sphere,420.0,2/4/2013,38.3397222,-122.7,2013
highland village,tx,flash,5.0,10/11/2005,33.0916667,-97.0463889,2005
baton rouge,la,circle,10.0,11/16/2002,30.4505556,-91.1544444,2002
mcgraw,ny,fireball,600.0,11/20/2013,42.5961111,-76.0936111,2013
cave junction,or,triangle,43200.0,10/11/2005,42.1630556,-123.6469444,1976
powers,mi,fireball,10.0,11/3/2005,45.69,-87.5258333,2005
hicksville (long island),ny,circle,15.0,4/16/2005,40.7683333,-73.5255556,1957
ashland,or,light,3600.0,6/23/2004,42.1947222,-122.7083333,2004
niagara falls,ny,formation,30.0,4/2/1999,43.0944444,-79.0569444,1993
las vegas,nv,teardrop,300.0,11/9/2004,36.175,-115.1363889,2004
wichita,ks,triangle,5.0,7/22/2013,37.6922222,-97.3372222,2013
frisco,nc,sphere,7200.0,4/18/2012,35.235,-75.6288889,2012
el dorado,ar,cigar,120.0,4/14/2009,33.2075,-92.6661111,2009
east brunswick,nj,circle,300.0,7/16/2006,40.4277778,-74.4163889,2006
everett,wa,oval,2700.0,5/10/2004,47.9791667,-122.2008333,2004
bristol,tn,triangle,600.0,10/27/2004,36.595,-82.1888889,2004
portage lakes,oh,oval,180.0,4/24/2014,41.0072222,-81.5272222,2014
glendale,ca,fireball,1200.0,7/4/2012,34.1425,-118.2541667,2012
saratoga,ca,other,4.0,1/24/2012,37.2638889,-122.0219444,2012
river vale,nj,circle,20.0,3/2/2004,40.9952778,-74.0125,1973
alvin,tx,other,10.0,5/12/2009,29.4236111,-95.2438889,2008
west jordan,ut,light,600.0,8/30/2013,40.5,-111.95,2013
pratt,ks,circle,900.0,2/12/2004,37.6438889,-98.7372222,2004
coudersport,pa,fireball,180.0,7/19/2010,41.7747222,-78.0208333,2010
franklin square,ny,circle,60.0,7/14/2013,40.7072222,-73.6763889,2013
lake george,ny,flash,300.0,9/24/2003,43.4261111,-73.7127778,2003
grantsville,ut,fireball,10.0,8/19/2000,40.6,-112.4636111,2000
dubuque,ia,light,120.0,6/12/2011,42.5005556,-90.6644444,2011
noblesville,in,light,10.0,2/14/2006,40.0455556,-86.0086111,2005
key largo,fl,fireball,180.0,4/13/2010,25.0861111,-80.4475,2010
graham,wa,disk,1500.0,11/11/2013,47.0530556,-122.2930556,2013
nyssa,or,changing,5400.0,9/29/2002,43.8769444,-116.9938889,2002
raleigh,nc,light,120.0,4/18/2012,35.7719444,-78.6388889,2012
kennewick,wa,other,30.0,9/24/2012,46.2113889,-119.1361111,2012
madison,wi,oval,900.0,7/5/2008,43.0730556,-89.4011111,2008
glen head,ny,triangle,35.0,6/12/2002,40.8352778,-73.6241667,2002
pipestone (20-30 miles north of),mn,triangle,600.0,10/15/2002,44.0005556,-96.3172222,2000
kealia,hi,fireball,1200.0,1/24/2014,22.1019444,-159.3086111,2014
portland,me,light,20.0,7/19/2010,43.6613889,-70.2558333,2010
beaver dam,wi,light,10.0,4/16/2005,43.4577778,-88.8372222,2005
isanti,mn,other,20.0,5/12/2010,45.4902778,-93.2475,2010
appleton,wi,fireball,300.0,2/4/2013,44.2619444,-88.4152778,2012
glendale,az,circle,6.0,11/20/2001,33.5386111,-112.1852778,2001
santa clarita,ca,circle,0.5,12/16/1999,34.3916667,-118.5416667,1999
san fernando,ca,cigar,900.0,3/4/2008,34.2819444,-118.4380556,2008
lewiston,me,circle,3600.0,9/17/2000,44.1002778,-70.2152778,2000
ballwin,mo,circle,600.0,7/4/2012,38.595,-90.5461111,2012
warwick,ri,triangle,360.0,2/14/2006,41.7,-71.4166667,2005
marlboro,ma,fireball,600.0,9/24/2012,42.7166667,-70.9736111,2012
easton,md,teardrop,600.0,7/6/2010,38.7741667,-76.0766667,2010
winooski,vt,oval,300.0,4/16/2005,44.4913889,-73.1861111,1958
missouri city,tx,flash,900.0,11/3/2005,29.6183333,-95.5375,2005
wentzville,mo,triangle,15.0,2/21/2014,38.8113889,-90.8527778,2014
miami,fl,light,15.0,6/12/2008,25.7738889,-80.1938889,2005
mesa,az,changing,600.0,10/31/2008,33.4222222,-111.8219444,2008
seminole,fl,light,1200.0,1/31/2011,27.8394444,-82.7913889,2011
grand rapids,mi,formation,900.0,11/4/2012,42.9633333,-85.6680556,2012
wrightsville beach,nc,triangle,1200.0,5/13/2012,34.2083333,-77.7966667,2012
monterey,ca,flash,2700.0,12/12/2011,36.6002778,-121.8936111,2011
st. paul,mn,sphere,300.0,2/4/2013,44.9444444,-93.0930556,2012
new york city (brooklyn),ny,cigar,180.0,5/15/2006,40.7141667,-74.0063889,2006
pass christian,ms,disk,1800.0,11/8/2003,30.3155556,-89.2475,2003
north port,fl,changing,45.0,12/20/2000,27.0438889,-82.2361111,2000
farmington,mo,fireball,120.0,11/19/2012,37.7808333,-90.4216667,2012
buckhead ridge,fl,disk,480.0,10/30/2006,27.13,-80.8938889,2006
springfield,ma,oval,30.0,10/30/2012,42.1013889,-72.5902778,2012
sandstone,mn,rectangle,300.0,2/22/2002,46.1311111,-92.8672222,2002
des moines,ia,light,120.0,8/7/2007,41.6005556,-93.6088889,2007
logansport,in,disk,2.0,4/27/2004,40.7544444,-86.3566667,2004
baker city,or,other,86400.0,1/19/2005,44.775,-117.8333333,2005
las vegas,nv,light,60.0,6/18/2004,36.175,-115.1363889,2004
harrisonburg,la,disk,30.0,2/22/2005,31.7719444,-91.8213889,1994
bullhead city,az,light,1200.0,11/2/1999,35.1477778,-114.5675,1999
dahlonega,ga,changing,3600.0,9/17/2000,34.5325,-83.985,2000
binghamton,ny,light,180.0,11/21/2010,42.0986111,-75.9183333,2010
laurens,sc,light,900.0,11/28/2007,34.4988889,-82.0144444,2007
manteno,il,fireball,4.0,3/10/2011,41.2505556,-87.8313889,2011
port orange,fl,disk,5.0,3/17/2004,29.1380556,-80.9958333,2003
carpentersville,il,triangle,60.0,3/13/2012,42.1211111,-88.2577778,2012
fayetteville,nc,other,2.0,5/2/2003,35.0525,-78.8786111,1996
santee,sc,cylinder,300.0,11/21/1998,33.475,-80.4866667,1998
san bernardino,ca,sphere,120.0,2/22/2005,34.1083333,-117.2888889,2005
ocala,fl,circle,1800.0,11/11/2013,29.1869444,-82.1402778,2013
missoula,mt,light,10.0,8/7/2007,46.8722222,-113.9930556,2007
cranston,ri,light,1200.0,3/4/2008,41.7797222,-71.4377778,1975
los angeles,ca,light,20.0,11/21/2010,34.0522222,-118.2427778,2010
rutland,vt,triangle,3.0,4/13/2010,43.6105556,-72.9730556,2010
moncks corner,sc,formation,7.0,11/19/2012,33.1958333,-80.0133333,2012
palmdale,ca,triangle,300.0,7/6/2010,34.5794444,-118.1155556,2010
piscataway,nj,light,900.0,6/12/2007,40.4991667,-74.3994444,2007
san diego,ca,oval,180.0,11/21/2010,32.7152778,-117.1563889,2010
simi valley,ca,light,35.0,12/12/2009,34.2694444,-118.7805556,1976
kenosha,wi,light,240.0,8/7/2011,42.5847222,-87.8211111,2011
longview,wa,other,240.0,1/28/1999,46.1383333,-122.9369444,1997
kenai,ak,flash,30.0,9/12/2003,60.5544444,-151.2583333,2003
janesville,wi,flash,900.0,2/8/2011,42.6827778,-89.0186111,2011
heflin  (talladega national forest at oak level),al,light,10800.0,4/26/1999,33.6488889,-85.5875,1996
seattle,wa,triangle,10.0,11/28/2007,47.6063889,-122.3308333,2007
frankfort square,il,triangle,900.0,4/14/2009,41.5188889,-87.8030556,2009
ferndale,wa,other,10.0,9/6/2002,48.8466667,-122.5897222,2002
lancaster,ny,other,600.0,9/2/2005,42.9005556,-78.6705556,2005
crystal beach,tx,disk,11700.0,1/22/2000,29.4569444,-94.6394444,1967
luther,ok,sphere,180.0,12/21/2012,35.6616667,-97.1952778,2012
la crosse,wi,cigar,1200.0,7/25/2004,43.8013889,-91.2394444,2004
heber springs,ar,circle,600.0,12/20/2012,35.4913889,-92.0311111,2012
johnson city,ny,triangle,120.0,8/27/2009,42.1155556,-75.9591667,2009
porterville,ca,fireball,10800.0,3/19/2009,36.0652778,-119.0158333,2009
laredo,tx,sphere,1500.0,10/31/2003,27.5061111,-99.5072222,2003
hernando,fl,triangle,120.0,3/11/2006,28.8997222,-82.3747222,1995
hillsdale,mi,disk,3600.0,3/11/2006,41.92,-84.6305556,1966
riverview,fl,circle,300.0,7/23/2000,27.8658333,-82.3266667,2000
poipu,hi,fireball,120.0,11/11/2013,21.8763889,-159.4538889,2013
chariton,ia,other,600.0,6/4/2004,41.0138889,-93.3063889,1953
tucson,az,other,120.0,1/30/2014,32.2216667,-110.9258333,2014
stratham,nh,light,5.0,12/19/2003,43.0238889,-70.9141667,2003
jacksonville beach,fl,light,240.0,1/12/2012,30.2944444,-81.3933333,2012
rialto,ca,circle,900.0,1/10/2009,34.1063889,-117.3694444,2008
marysville,wa,fireball,240.0,7/19/2010,48.0519444,-122.1758333,2010
cleveland,oh,other,300.0,7/16/2006,41.4994444,-81.6955556,2006
fort myers,fl,oval,8.0,11/11/2003,26.6402778,-81.8725,2003
edison,nj,circle,300.0,2/10/2012,40.5186111,-74.4125,2012
redding,ct,other,120.0,2/23/2011,41.3025,-73.3838889,2011
marietta,mn,light,120.0,1/10/2014,45.0083333,-96.4172222,2013
stamford,ct,light,3.0,3/21/2014,41.0533333,-73.5391667,2014
orlando,fl,triangle,600.0,2/14/2008,28.5380556,-81.3794444,2008
wichita,ks,flash,900.0,3/21/2003,37.6922222,-97.3372222,2003
new york city (bronx),ny,sphere,120.0,6/12/2007,40.7141667,-74.0063889,2007
avalon,nj,triangle,600.0,9/30/2013,39.1011111,-74.7180556,2013
sammamish,wa,fireball,20.0,1/12/2012,47.6419444,-122.0791667,2011
averill park,ny,light,3.0,3/19/2009,42.6338889,-73.5541667,2009
primm,nv,other,300.0,8/24/2010,35.6127778,-115.3894444,2010
apex,nc,light,30.0,2/14/2014,35.7325,-78.8505556,2014
atlanta,ga,light,1200.0,5/11/2000,33.7488889,-84.3880556,2000
oneonta,al,triangle,120.0,11/4/2012,33.9480556,-86.4727778,2012
anchorage,ak,light,1200.0,10/30/2012,61.2180556,-149.9002778,2012
fulton,ms,egg,5.0,5/8/2014,34.2738889,-88.4091667,2014
pebble beach,ca,light,15.0,7/5/2013,36.5663889,-121.9455556,2011
sherburne,ny,oval,30.0,2/16/1999,42.6780556,-75.4988889,1999
arlington,tx,fireball,15.0,10/31/2003,32.7355556,-97.1077778,2001
montauk (town of east hampton),ny,circle,300.0,1/10/2009,41.0358333,-71.955,2008
stuart,ia,light,4.0,7/3/2013,41.5033333,-94.3183333,2013
larkspur,co,disk,900.0,8/30/2013,39.2286111,-104.8866667,2013
new york city (brooklyn),ny,circle,900.0,3/11/2006,40.7141667,-74.0063889,2005
kihei,hi,fireball,3.0,6/2/2013,20.785,-156.4655556,2013
las vegas,nv,other,180.0,10/10/2011,36.175,-115.1363889,2011
boca raton,fl,fireball,240.0,2/14/2010,26.3583333,-80.0833333,2010
los angeles,ca,disk,3600.0,8/5/2001,34.0522222,-118.2427778,2001
redondo beach,ca,formation,15.0,10/17/2003,33.8491667,-118.3875,1999
pleasanton,ca,sphere,2.0,4/11/2014,37.6625,-121.8736111,2014
stephenville,tx,disk,2700.0,1/21/2008,32.2205556,-98.2019444,2008
antioch,ca,disk,300.0,9/29/2004,38.005,-121.8047222,2004
ingleside,tx,fireball,120.0,12/20/2012,27.8775,-97.2113889,2012
san francisco,ca,other,180.0,4/15/2000,37.775,-122.4183333,1956
smithtown,ny,flash,900.0,7/19/2010,40.8558333,-73.2011111,2010
burbank,ca,triangle,600.0,7/15/2005,34.1808333,-118.3080556,2005
grand rapids,oh,rectangle,10.0,11/28/2007,41.4119444,-83.8644444,2007
coalinga,ca,triangle,120.0,8/27/2009,36.1397222,-120.3591667,1999
bar harbor (bar island crossover),me,sphere,30.0,11/1/1998,44.3875,-68.2044444,1998
bismarck,nd,circle,3600.0,8/24/2004,46.8083333,-100.7833333,2004
littleton,co,disk,600.0,5/29/2011,39.6133333,-105.0161111,2011
brentwood,ca,chevron,480.0,6/12/2008,37.9319444,-121.6947222,2008
port charlotte,fl,light,25.0,6/9/2009,26.9758333,-82.0908333,2009
kingston,wa,light,1.0,10/12/2001,47.7988889,-122.4969444,2001
reedsburg,oh,triangle,600.0,1/21/2008,40.8086111,-82.1069444,2001
phoenix,az,sphere,30.0,10/30/2012,33.4483333,-112.0733333,2012
myrtle beach,sc,light,3.0,8/28/2002,33.6888889,-78.8869444,2002
detroit,mi,disk,30.0,10/8/2007,42.3313889,-83.0458333,2007
sahuarita,az,formation,900.0,3/11/2006,31.9575,-110.955,2006
bertram,tx,light,120.0,12/16/2005,30.7436111,-98.0552778,2005
belford,nj,disk,10.0,7/6/2010,40.4258333,-74.0872222,2010
shady spring,wv,changing,3600.0,7/16/2006,37.7055556,-81.0986111,2006
vancouver,wa,light,15.0,8/5/2012,45.6388889,-122.6602778,2012
medical lake,wa,fireball,300.0,8/5/2012,47.5730556,-117.6811111,2012
ben wheeler,tx,triangle,30.0,11/21/2010,32.4458333,-95.7036111,2010
lancaster,ca,circle,90.0,2/14/2008,34.6980556,-118.1358333,2008
unadilla,ny,light,2.0,3/7/1998,42.3252778,-75.3127778,1997
cottage grove,or,sphere,1200.0,10/31/2008,43.7977778,-123.0583333,2008
kansas city,mo,sphere,120.0,11/20/2013,39.0997222,-94.5783333,2013
fremont,ca,light,2700.0,12/12/2013,37.5483333,-121.9875,2013
hopkinsville,ky,cylinder,300.0,11/16/2002,36.8655556,-87.4886111,2002
long beach,ca,sphere,2.0,1/10/2009,33.7669444,-118.1883333,2008
waldport,or,cigar,120.0,5/24/2005,44.4269444,-124.0675,2004
burlington,wi,circle,120.0,4/24/2014,42.6780556,-88.2761111,2014
daytona beach,fl,circle,60.0,8/30/2013,29.2105556,-81.0230556,2013
dallas,tx,circle,120.0,6/12/2008,32.7833333,-96.8,2008
greensboro,nc,sphere,20.0,5/11/2005,36.0725,-79.7922222,2005
wrentham,ma,teardrop,180.0,12/20/2012,42.0666667,-71.3286111,2012
elgin,il,fireball,1.0,11/20/2001,42.0372222,-88.2811111,2001
clinton,tn,flash,1.0,6/12/2002,36.1033333,-84.1319444,2002
lincoln,ne,light,2700.0,12/12/2009,40.8,-96.6666667,2009
gadsden,al,light,4.0,7/19/2010,34.0141667,-86.0066667,2010
slocomb,al,circle,120.0,1/17/2004,31.1080556,-85.5944444,1970
gig harbor,wa,disk,120.0,10/15/2003,47.3294444,-122.5788889,1993
bremerton,wa,oval,300.0,7/26/2002,47.5675,-122.6313889,2002
murfreesboro,tn,formation,10.0,12/12/2011,35.8455556,-86.3902778,2011
wilmington,nc,light,1800.0,8/28/2002,34.2255556,-77.945,2002
woodstock,ga,sphere,20.0,9/30/2013,34.1013889,-84.5194444,2013
saint peters,mo,triangle,60.0,8/5/2012,38.8002778,-90.6263889,2012
wayland,ma,sphere,15.0,12/3/2004,42.3625,-71.3619444,2004
farmington,nm,sphere,120.0,5/13/2012,36.7280556,-108.2180556,2012
hampton,tn,light,20.0,2/8/2011,36.2841667,-82.1727778,2011
beaverton,or,triangle,120.0,7/14/2013,45.4872222,-122.8025,1962
palmetto,ga,circle,120.0,5/24/2005,33.5177778,-84.6697222,1999
crockett,tx,chevron,300.0,2/25/2003,31.3180556,-95.4563889,2002
elmore,al,triangle,600.0,4/27/2007,32.5386111,-86.315,2007
hesperia,ca,fireball,10.0,1/28/1999,34.4263889,-117.3,1998
roanoke,va,light,14400.0,11/11/2013,37.2708333,-79.9416667,2013
salem,or,sphere,60.0,9/26/1998,44.9430556,-123.0338889,1998
clarence,ny,rectangle,2.0,8/24/2010,42.9766667,-78.5922222,2009
flossmoor,il,triangle,3600.0,1/16/2014,41.5427778,-87.6847222,2014
wichita,ks,cylinder,30.0,9/24/2012,37.6922222,-97.3372222,2012
southport,nc,fireball,2.0,4/1/2000,33.9213889,-78.0205556,2000
reynolds,il,light,30.0,11/21/2010,41.3297222,-90.6702778,2010
rosebud,sd,circle,120.0,6/23/2010,43.2327778,-100.8530556,2010
rio hondo,tx,oval,1800.0,2/18/2013,26.235,-97.5816667,2013
glen mills,pa,disk,60.0,12/12/2009,39.9191667,-75.4919444,2009
altamonte springs,fl,fireball,600.0,7/16/2006,28.6608333,-81.3658333,2006
islandia,ny,circle,30.0,2/14/2008,40.8041667,-73.1694444,2008
menifee,ca,circle,8.0,2/14/2008,33.7283333,-117.1455556,2008
ukiah,ca,sphere,600.0,1/17/2004,39.1502778,-123.2066667,1978
east alton,il,light,7.0,9/26/1998,38.8802778,-90.1111111,1997
new york city (brooklyn),ny,oval,10.0,8/5/2001,40.7141667,-74.0063889,2001
granite city,il,light,30.0,8/24/2010,38.7013889,-90.1486111,2010
saint peters,mo,disk,300.0,3/13/2012,38.8002778,-90.6263889,2012
puyallup,wa,chevron,900.0,7/14/2013,47.1855556,-122.2916667,2013
bothell,wa,disk,1800.0,11/1/1998,47.7625,-122.2041667,1998
deerfield beach,fl,oval,300.0,1/31/2011,26.3180556,-80.1,2011
athens,oh,circle,3600.0,8/27/2009,39.3291667,-82.1013889,2009
phoenix,az,formation,600.0,12/7/2006,33.4483333,-112.0733333,2006
lincoln city,or,triangle,600.0,10/30/2006,44.9583333,-124.0166667,1997
wichita,ks,light,15.0,10/19/1999,37.6922222,-97.3372222,1999
oro valley,az,circle,3.0,4/17/2008,32.3908333,-110.9658333,2008
asheboro,nc,sphere,900.0,8/19/2012,35.7077778,-79.8138889,2012
college city,ca,disk,2700.0,1/19/2005,39.0058333,-122.0083333,2005
ballinger,tx,changing,1200.0,12/16/2005,31.7380556,-99.9469444,2005
los angeles,ca,disk,300.0,7/11/2000,34.0522222,-118.2427778,1994
brentwood,ca,formation,30.0,11/1/1998,37.9319444,-121.6947222,1997
spring lake park,mn,sphere,300.0,12/12/2009,45.1077778,-93.2377778,2009
nesquehoning,pa,triangle,60.0,8/7/2011,40.8644444,-75.8113889,1965
o&#39neals,ca,light,180.0,1/31/2011,37.1283333,-119.6933333,2011
jacksboro,tx,triangle,180.0,8/5/2001,33.2183333,-98.1583333,2001
leeds,me,triangle,60.0,1/21/2008,44.3033333,-70.12,2008
citrus heights,ca,formation,6.0,7/4/2011,38.7072222,-121.28,2011
encinitas,ca,light,30.0,12/12/2011,33.0369444,-117.2911111,2011
woodbridge,va,sphere,5.0,3/23/2011,38.6580556,-77.25,1987
tucson,az,other,1200.0,10/31/2003,32.2216667,-110.9258333,1963
oregon city,or,fireball,180.0,10/30/2012,45.3575,-122.6055556,2012
san anselmo,ca,circle,180.0,12/23/2013,37.9747222,-122.5605556,2013
victor,co,cylinder,300.0,12/2/2000,38.71,-105.1394444,2000
olney,il,triangle,60.0,2/22/2005,38.7308333,-88.0852778,1977
philadelphia,pa,light,180.0,6/18/2004,39.9522222,-75.1641667,1995
miamisburg,oh,triangle,600.0,12/12/2009,39.6427778,-84.2866667,2009
ellicott city,md,oval,300.0,7/19/2010,39.2672222,-76.7986111,2010
spring city,tn,oval,60.0,7/3/2013,35.6919444,-84.8608333,2013
stonington,ct,other,120.0,2/14/2008,41.3358333,-71.9063889,2008
cumming,ga,fireball,2.0,9/30/2013,34.2072222,-84.1402778,2013
gravette,ar,other,300.0,12/12/2009,36.4219444,-94.4533333,2009
hayward,ca,light,300.0,12/9/2003,37.6688889,-122.0797222,2003
ashland,or,light,120.0,8/10/1999,42.1947222,-122.7083333,1999
ogden,ut,light,1800.0,7/5/2005,41.2230556,-111.9730556,2005
denton,tx,disk,180.0,10/11/2005,33.2147222,-97.1327778,2005
winston-salem,nc,light,600.0,9/24/2012,36.0997222,-80.2444444,2012
roseburg,or,light,45.0,12/23/2013,43.2166667,-123.3405556,2013
falls village,ct,triangle,10800.0,12/12/2009,41.9558333,-73.3636111,2009
nashville,tn,sphere,1800.0,8/7/2007,36.1658333,-86.7844444,2007
merriam,ks,fireball,5.0,3/2/2004,39.0236111,-94.6933333,2004
antioch,tn,light,2400.0,12/16/2005,36.06,-86.6722222,2005
north kingstown,ri,triangle,180.0,1/27/2005,41.55,-71.4666667,1997
caldwell,id,formation,180.0,1/30/2014,43.6630556,-116.6863889,2014
lewistown,mt,circle,2700.0,8/5/2001,47.0625,-109.4275,2001
ephrata,pa,sphere,900.0,7/3/2013,40.1797222,-76.1791667,2013
tuckerton,nj,triangle,120.0,6/6/2000,39.6030556,-74.3405556,2000
calistoga,ca,triangle,600.0,5/2/2003,38.5788889,-122.5786111,2003
wesley chapel,fl,triangle,1800.0,8/5/2009,28.2394444,-82.3280556,2009
tustin,ca,light,15.0,8/28/2003,33.7458333,-117.8252778,2003
albuquerque,nm,circle,2.0,6/20/2005,35.0844444,-106.6505556,2005
dodge city,ks,circle,600.0,8/30/2013,37.7527778,-100.0166667,2010
spokane,wa,disk,7.0,10/11/2005,47.6588889,-117.425,2005
gilbert,az,triangle,5.0,5/13/2012,33.3527778,-111.7883333,2012
flower mound,tx,changing,360.0,5/8/2014,33.0144444,-97.0966667,2014
lincoln city,or,formation,600.0,8/5/2012,44.9583333,-124.0166667,2012
san diego,ca,light,20.0,1/10/2014,32.7152778,-117.1563889,2014
fort myers,fl,disk,60.0,1/17/2004,26.6402778,-81.8725,2004
laguna niguel,ca,circle,420.0,12/12/2009,33.5225,-117.7066667,2009
apache junction (east of),az,other,28800.0,2/24/2001,33.415,-111.5488889,1999
east hartford,ct,light,2.0,9/24/2012,41.7822222,-72.6125,2012
vestal,ny,fireball,120.0,3/16/2012,42.085,-76.0541667,2012
clarks summit,pa,light,15.0,6/9/2009,41.4886111,-75.7088889,2009
stony brook,ny,light,300.0,4/27/2007,40.9255556,-73.1413889,2007
galveston,tx,changing,7200.0,10/30/2006,29.3011111,-94.7975,1987
pensacola,fl,light,120.0,10/10/2011,30.4211111,-87.2169444,2011
wallingford,ct,formation,60.0,6/12/2008,41.4569444,-72.8236111,2008
burbank,ca,light,300.0,1/21/2008,34.1808333,-118.3080556,2008
medford,or,sphere,45.0,7/4/2012,42.3266667,-122.8744444,2012
topeka,ks,light,180.0,8/21/2011,39.0483333,-95.6777778,2011
audubon,nj,sphere,60.0,5/24/1999,39.8908333,-75.0733333,1999
carolina beach,nc,formation,600.0,9/24/2003,34.035,-77.8938889,2002
north myrtle beach,sc,fireball,240.0,1/24/2012,33.8158333,-78.6802778,2012
jacksonville,fl,circle,3.0,3/10/2011,30.3319444,-81.6558333,2011
westmont,il,disk,900.0,8/24/2004,41.7958333,-87.9755556,2004
cardiff-by-the-sea,ca,triangle,10.0,4/27/2003,33.0216667,-117.2802778,2003
dudley,ma,triangle,600.0,12/23/2002,42.045,-71.9305556,2002
elkhorn,wi,light,300.0,9/24/2012,42.6727778,-88.5444444,2012
dunbar,wv,light,1800.0,7/17/2011,38.3605556,-81.7375,2011
osage beach,mo,disk,14.0,7/4/2011,38.1502778,-92.6177778,2011
smyrna,tn,circle,480.0,6/12/2008,35.9827778,-86.5186111,2008
carmel,in,triangle,1200.0,8/16/2002,39.9783333,-86.1180556,1999
wharton,oh,sphere,900.0,8/20/2001,40.8613889,-83.4616667,1996
kearns,ut,triangle,120.0,5/2/2011,40.66,-111.9955556,2011
los montoyas,nm,disk,20.0,6/23/2010,35.4194444,-105.2072222,2010
mobile,al,chevron,15.0,10/7/2003,30.6941667,-88.0430556,2003
powell,oh,sphere,300.0,9/30/2013,40.1577778,-83.0752778,2013
texas city,tx,disk,1800.0,10/30/2012,29.3836111,-94.9025,2006
los gatos,ca,other,900.0,1/22/2000,37.2266667,-121.9736111,2000
cottonwood,az,circle,180.0,7/6/2011,34.7391667,-112.0091667,2011
new philadelphia,oh,triangle,3.0,7/16/2006,40.4897222,-81.4458333,2006
lynnwood,wa,sphere,240.0,3/16/2001,47.8211111,-122.3138889,2001
las vegas,nv,sphere,900.0,8/30/2013,36.175,-115.1363889,2013
springfield,oh,triangle,240.0,8/10/1999,39.9241667,-83.8088889,1987
springfield,mo,disk,300.0,7/19/2010,37.2152778,-93.2980556,2010
eatonville,wa,disk,1200.0,9/30/2013,46.8675,-122.2652778,2013
vero beach,fl,light,120.0,3/23/2011,27.6383333,-80.3975,2011
colfax,wa,oval,300.0,8/16/2002,46.8802778,-117.3633333,1984
ashland,ky,light,30.0,11/17/1999,38.4783333,-82.6380556,1999
temple,tx,light,180.0,11/19/2012,31.0980556,-97.3425,2012
cloverdale,ca,other,900.0,7/26/2002,38.8055556,-123.0161111,2002
plantation,fl,fireball,600.0,1/10/2009,26.1272222,-80.2333333,2009
ames,ia,triangle,240.0,8/5/2001,42.0347222,-93.6197222,2001
pleasanton,ca,circle,15.0,8/16/2002,37.6625,-121.8736111,2002
doniphan,mo,triangle,60.0,7/4/2011,36.6208333,-90.8233333,2001
willow grove,pa,cone,5.0,3/19/2002,40.1438889,-75.1161111,1992
burbank,ca,changing,600.0,7/19/2010,34.1808333,-118.3080556,2010
west peoria,il,circle,120.0,7/10/2010,40.6936111,-89.5888889,2010
taylorville,il,light,30.0,11/17/1999,39.5488889,-89.2944444,1999
san antonio,tx,light,3.0,6/12/2002,29.4238889,-98.4933333,2002
lancaster,oh,chevron,2.0,6/3/2010,39.7136111,-82.5994444,2010
jerome,mo,rectangle,600.0,2/12/2004,37.9261111,-91.9775,2004
manhattan beach,ca,teardrop,1200.0,7/26/2002,33.8847222,-118.41,1997
lake worth,fl,light,180.0,10/30/2012,26.6155556,-80.0572222,2012
levittown,ny,cylinder,3900.0,6/21/2000,40.7258333,-73.5147222,2000
niskayuna,ny,light,8.0,7/4/2012,42.7797222,-73.8461111,2012
wichita,ks,fireball,300.0,7/28/2010,37.6922222,-97.3372222,2010
allentown,pa,chevron,300.0,10/8/2007,40.6083333,-75.4905556,1972
dover,de,triangle,180.0,7/16/2006,39.1580556,-75.5247222,2006
saluda,sc,changing,1800.0,11/21/2010,34.0013889,-81.7722222,2010
haymarket,va,sphere,600.0,7/16/2006,38.8119444,-77.6366667,1995
avondale,az,chevron,300.0,3/28/2004,33.4355556,-112.3488889,2004
minong,wi,light,180.0,7/3/2013,46.0994444,-91.8247222,2013
state college,pa,circle,5.0,7/25/2004,40.7933333,-77.8602778,2004
reading,pa,disk,5400.0,1/31/2004,40.3355556,-75.9272222,2004
vero beach,fl,light,120.0,4/11/2014,27.6383333,-80.3975,2014
sedona,az,light,180.0,3/19/2009,34.8697222,-111.7602778,2009
madison,wi,oval,900.0,7/5/2008,43.0730556,-89.4011111,2008
bryan,tx,triangle,15.0,10/2/1999,30.6741667,-96.3697222,1999
plainview,ny,fireball,120.0,8/30/2013,40.7763889,-73.4677778,2012
boston,ma,triangle,10.0,11/21/2010,42.3583333,-71.0602778,2009
atlanta,ga,circle,600.0,6/12/2007,33.7488889,-84.3880556,2007
medford,or,triangle,900.0,8/24/2010,42.3266667,-122.8744444,2010
goodyear,az,light,900.0,7/16/2006,33.4352778,-112.3575,2006
grass valley,ca,other,45.0,1/31/2004,39.2191667,-121.06,1982
spokane,wa,sphere,10.0,6/20/2005,47.6588889,-117.425,2005
anchorage,ak,sphere,300.0,1/12/2012,61.2180556,-149.9002778,2012
petaluma,ca,light,300.0,9/24/2012,38.2325,-122.6355556,2012
graham,wa,fireball,1800.0,8/5/2012,47.0530556,-122.2930556,2012
ann arbor,mi,triangle,300.0,8/12/2008,42.2708333,-83.7263889,2008
vallejo,ca,cigar,1800.0,7/29/2000,38.1041667,-122.2555556,2000
grand rapids,mi,oval,720.0,8/30/2013,42.9633333,-85.6680556,2013
des plaines,il,disk,30.0,10/20/2005,42.0333333,-87.8833333,1978
yonkers,ny,light,14.0,9/2/2005,40.9311111,-73.8991667,1958
dorr,mi,circle,600.0,12/12/2009,42.7252778,-85.7225,2009
amargosa valley,nv,other,1200.0,7/4/2012,36.6438889,-116.3994444,2011
lighthouse point,fl,triangle,480.0,6/12/2008,26.2752778,-80.0875,2007
wewahitchka,fl,other,5.0,11/26/2003,30.1125,-85.2005556,2003
richmond,va,changing,900.0,8/5/2001,37.5536111,-77.4605556,2001
ponte vedra beach,fl,light,14400.0,5/24/2005,30.2394444,-81.3858333,2001
hollister,ca,circle,1800.0,10/30/2006,36.8525,-121.4005556,2000
jacksonville beach,fl,disk,900.0,2/4/2013,30.2944444,-81.3933333,2013
noxen,pa,cigar,30.0,4/13/2010,41.4213889,-76.0588889,1975
columbus,oh,formation,180.0,4/2/1999,39.9611111,-82.9988889,1998
north beach,md,other,6.0,11/20/2001,38.7072222,-76.5313889,1997
san bernardino,ca,formation,120.0,5/12/2010,34.1083333,-117.2888889,2010
egan,sd,oval,180.0,8/5/2009,43.9991667,-96.6486111,2009
san elizario,tx,disk,5.0,7/23/2003,31.585,-106.2722222,1982
mishawaka,in,fireball,600.0,8/7/2007,41.6619444,-86.1586111,2007
citrus heights,ca,circle,300.0,3/16/2000,38.7072222,-121.28,2000
ontario,ca,cone,300.0,3/13/2012,34.0633333,-117.65,2012
new york city,ny,light,10800.0,5/2/2011,40.7141667,-74.0063889,1994
vicksburg,mi,light,1200.0,8/5/2009,42.12,-85.5327778,2009
folsom,ca,circle,15.0,6/12/2008,38.6780556,-121.175,2008
las vegas,nv,changing,60.0,6/23/2010,36.175,-115.1363889,2010
sylva,nc,triangle,10.0,3/4/2008,35.3736111,-83.2261111,2007
placentia,ca,light,1800.0,11/2/2004,33.8722222,-117.8694444,1994
los angeles,ca,cigar,1200.0,8/5/2001,34.0522222,-118.2427778,2001
fremont,ca,other,120.0,7/5/2008,37.5483333,-121.9875,2008
belfair,wa,light,2.0,2/22/2005,47.4508333,-122.8261111,2004
albany,or,oval,4.0,10/11/2005,44.6366667,-123.1047222,2005
eureka springs,ar,light,300.0,12/12/2011,36.4011111,-93.7377778,2011
miami beach,fl,chevron,1200.0,10/10/2011,25.7902778,-80.1302778,2011
mount morris,ny,triangle,300.0,5/24/2005,42.7255556,-77.8744444,2001
philadelphia,pa,light,240.0,8/1/2003,39.9522222,-75.1641667,2003
port orange (daytona beach),fl,triangle,15.0,8/10/1999,29.1380556,-80.9958333,1998
tehachapi,ca,triangle,20.0,9/28/2003,35.1322222,-118.4480556,1965
lemont,il,sphere,180.0,8/7/2007,41.6736111,-88.0016667,2007
los angeles,ca,light,900.0,6/4/2004,34.0522222,-118.2427778,2004
buford,ga,light,600.0,7/3/2013,34.1205556,-84.0044444,2013
elk park,mt,triangle,60.0,6/20/2005,46.165,-112.3713889,2005
harrington,de,sphere,5400.0,10/10/2011,38.9236111,-75.5780556,2011
greenwater (near&#44 by mt. rainier),wa,formation,240.0,8/24/2004,47.1561111,-121.6491667,2004
pearl river,la,diamond,120.0,5/15/2013,30.3758333,-89.7483333,2013
ellicott city,md,other,60.0,4/27/2004,39.2672222,-76.7986111,2004
hooks,tx,triangle,180.0,7/5/2008,33.4661111,-94.2883333,2008
layton,ut,cone,3600.0,9/24/2012,41.0602778,-111.9702778,2012
mesa,az,triangle,30.0,5/15/2006,33.4222222,-111.8219444,1997
chicago,il,sphere,705.0,6/14/2012,41.85,-87.65,2012
san francisco,ca,triangle,7.0,10/8/2007,37.775,-122.4183333,2007
derry,nh,light,60.0,9/6/2002,42.8805556,-71.3277778,2002
prineville,or,other,900.0,4/27/2004,44.3,-120.8333333,1985
ellington,ct,light,15.0,12/12/2009,41.9038889,-72.4702778,2009
boyd,tx,disk,180.0,12/3/2004,33.0786111,-97.565,2004
south gate,ca,light,180.0,7/5/2013,33.9547222,-118.2111111,2013
socorro,nm,other,1500.0,8/5/2001,34.0583333,-106.8908333,2001
orland park,il,light,420.0,10/11/2005,41.6302778,-87.8538889,2005
hornick,ia,fireball,120.0,4/27/2004,42.2305556,-96.0972222,1965
albany,il,disk,300.0,1/17/2004,41.7894444,-90.2191667,1980
des moines,ia,triangle,1800.0,4/27/2004,41.6005556,-93.6088889,2003
tukwila,wa,light,3600.0,3/19/2009,47.4741667,-122.2597222,2009
jarrettsville,md,light,1800.0,8/10/1999,39.6044444,-76.4780556,1966
lakewood,co,disk,240.0,12/12/2011,39.7047222,-105.0808333,2011
columbus,oh,light,2.0,7/16/2003,39.9611111,-82.9988889,2003
pickerington,oh,triangle,180.0,9/9/2013,39.8841667,-82.7536111,2013
silver spring,md,light,300.0,10/30/2006,38.9905556,-77.0263889,2006
rowland heights,ca,light,5.0,12/12/2009,33.9761111,-117.9044444,1999
grand rapids,mi,cone,180.0,6/3/2010,42.9633333,-85.6680556,1977
pittsburgh,pa,fireball,180.0,2/1/2007,40.4405556,-79.9961111,2007
clearwater,fl,light,30.0,1/10/2009,27.9655556,-82.8002778,2008
carpentersville,il,triangle,10.0,10/7/2003,42.1211111,-88.2577778,2003
fort worth,tx,circle,30.0,11/21/2010,32.7252778,-97.3205556,2010
englewood,co,oval,540.0,7/4/2012,39.6477778,-104.9872222,2010
rutland,ma,circle,172800.0,5/12/2010,42.3694444,-71.9486111,2010
torrance,ca,light,900.0,5/15/2013,33.8358333,-118.3397222,2013
oscoda,mi,fireball,5.0,12/12/2011,44.4202778,-83.3308333,2011
elko,nv,light,600.0,7/5/2008,40.8325,-115.7622222,2008
westchester,oh,rectangle,180.0,6/14/2012,39.3302778,-84.4083333,2012
mount holly,nj,oval,10.0,8/5/2009,39.9927778,-74.7880556,2009
midland,mi,flash,60.0,1/31/2011,43.6155556,-84.2472222,2010
austin,tx,triangle,2.0,9/26/1998,30.2669444,-97.7427778,1998
sequim,wa,other,1.0,2/4/2013,48.0797222,-123.1005556,2012
euless,tx,changing,60.0,6/3/2010,32.8369444,-97.0816667,2010
nashua,nh,other,180.0,10/31/2008,42.7652778,-71.4680556,2008
phoenix,az,rectangle,2880.0,3/4/2008,33.4483333,-112.0733333,2007
colorado springs,co,sphere,2700.0,12/3/2004,38.8338889,-104.8208333,1999
portland,or,other,180.0,2/4/2013,45.5236111,-122.675,2013
mandaree,nd,circle,300.0,12/9/2000,47.7291667,-102.6755556,1999
batavia,ia,sphere,900.0,4/13/2010,40.9941667,-92.1672222,2010
puyallup,wa,sphere,300.0,12/14/2004,47.1855556,-122.2916667,2004
texas city,il,sphere,2520.0,2/3/2012,37.8783333,-88.3933333,2012
new port richey,fl,other,45.0,12/16/2005,28.2438889,-82.7194444,2005
oxford,pa,fireball,1800.0,9/30/2013,39.7852778,-75.9791667,2013
overland park,ks,fireball,300.0,11/20/2013,38.9822222,-94.6705556,2013
ellensburg,wa,light,8.0,3/19/2009,46.9966667,-120.5466667,1998
glendale,az,triangle,10800.0,12/2/2000,33.5386111,-112.1852778,2000
willamina,or,rectangle,120.0,12/16/2005,45.0788889,-123.4847222,1990
canton,oh,light,45.0,12/12/2009,40.7988889,-81.3786111,2009
santa rosa,ca,light,3600.0,12/12/2009,38.4405556,-122.7133333,2009
park hills,mo,sphere,10800.0,10/31/2008,37.8541667,-90.5180556,2008
bonfield,il,diamond,10.0,4/16/2005,41.1466667,-88.0577778,1964
cranston,ri,fireball,60.0,4/12/2013,41.7797222,-71.4377778,2013
newton,ks,fireball,90.0,12/2/2000,38.0466667,-97.3447222,2000
ridgecrest,ca,changing,1800.0,4/26/1999,35.6225,-117.67,1999
provo,ut,changing,3600.0,4/11/2014,40.2338889,-111.6577778,2014
fort collins,co,changing,1200.0,8/7/2011,40.5852778,-105.0838889,2011
delray beach,fl,light,7200.0,1/5/2011,26.4611111,-80.0730556,2010
oshkosh,wi,light,300.0,1/10/2009,44.0247222,-88.5425,2009
tulsa,ok,light,2.0,5/12/2011,36.1538889,-95.9925,2011
huntington,in,light,1200.0,1/10/2009,40.8830556,-85.4975,2008
gamewell,nc,disk,30.0,5/29/2011,35.8691667,-81.5963889,2011
cleveland,oh,light,3600.0,8/24/2004,41.4994444,-81.6955556,2004
pollock pines,ca,light,15.0,12/2/2000,38.7613889,-120.5855556,2000
babbitt,mn,other,600.0,10/31/2003,47.7086111,-91.9444444,2000
spokane,wa,other,10.0,6/18/2004,47.6588889,-117.425,1974
winslow,me,disk,180.0,2/1/2007,44.5469444,-69.6216667,1976
comanche,tx,other,30.0,6/4/2004,31.8972222,-98.6033333,2000
brewster,oh,other,5.0,1/21/2008,40.7069444,-81.5983333,2008
hixson,tn,oval,37800.0,4/16/2005,35.1405556,-85.2327778,1973
jasper,al,cigar,600.0,6/9/2009,33.8311111,-87.2775,2009
whitefish,mt,other,120.0,2/4/2013,48.4111111,-114.3366667,2013
bunn,nc,circle,1.0,10/10/2011,35.9608333,-78.2538889,2011
murfreesboro,tn,disk,240.0,10/10/2011,35.8455556,-86.3902778,2011
delafield,wi,triangle,2.0,9/24/2012,43.0608333,-88.4036111,2012
hockley,tx,sphere,3600.0,2/14/2014,30.0266667,-95.8441667,2014
chandler,az,fireball,240.0,9/30/2013,33.3061111,-111.8405556,2013
martinez,ca,other,900.0,7/16/2006,38.0194444,-122.1330556,2006
east greenville,pa,fireball,180.0,7/6/2010,40.4063889,-75.5022222,2010
louisburg,nc,circle,30.0,4/24/2014,36.0988889,-78.3013889,2014
steger,il,diamond,3.0,4/27/2004,41.47,-87.6363889,1982
santa rosa,ca,diamond,120.0,4/13/2010,38.4405556,-122.7133333,2010
fruitport,mi,triangle,180.0,12/3/2004,43.1319444,-86.1547222,2000
vancouver,wa,fireball,1.0,3/19/2009,45.6388889,-122.6602778,2009
athens,ga,light,180.0,10/31/2008,33.9608333,-83.3780556,2008
chicago,il,other,900.0,8/12/2008,41.85,-87.65,2008
mariposa,ca,fireball,2.0,9/9/2003,37.485,-119.9652778,2003
peotone,il,light,90.0,7/5/2008,41.3322222,-87.7852778,2008
kenmore,wa,changing,5400.0,10/10/2011,47.7575,-122.2427778,2011
irvine,ca,sphere,900.0,7/4/2012,33.6694444,-117.8222222,1980
corvallis,or,other,7200.0,12/12/2009,44.5647222,-123.2608333,2003
victorville,ca,light,10800.0,9/6/2002,34.5361111,-117.2902778,2002
olympia,wa,disk,7200.0,7/5/2008,47.0380556,-122.8994444,1979
brookston,in,rectangle,480.0,10/14/2013,40.6027778,-86.8672222,2013
dexter,mo,circle,120.0,1/12/2012,36.7958333,-89.9577778,2012
apollo,pa,sphere,86400.0,11/11/2013,40.5813889,-79.5666667,2013
